[
  {
    "zipCode": "53111",
    "city": "Bonn",
    "street": "Wenzelgasse 23",
    "name": "REWE To Go",
    "phone": "Tel.: 0228-97668850",
    "openingsHours": [
      {
        "weekDays": "Mo Di Mi Do",
        "from": 7,
        "to": 24
      },
      {
        "weekDays": "Fr",
        "from": 7,
        "to": 25
      },
      {
        "weekDays": "Sa",
        "from": 7,
        "to": 27
      },
      {
        "weekDays": "So",
        "from": 9,
        "to": 24
      }
    ],
    "additional": "Unsere Öffnungszeiten",
    "image": "/dam/jcr:b6dadbab-dc6c-4ed2-8101-ee2d9e81ecfe/RTG-Bonn-170x170.png",
    "location": {
      "lat": 50.7366333,
      "lng": 7.102357899999999
    }
  },
  {
    "zipCode": "80335",
    "city": "München",
    "street": "Arnulfstraße 1 ",
    "name": "REWE To Go",
    "phone": "Tel.: 089-51265872",
    "openingsHours": [
      {
        "weekDays": "Mo Di Mi Do Fr Sa So",
        "from": 0,
        "to": 24
      }
    ],
    "additional": "Unsere Öffnungszeiten",
    "image": "/dam/jcr:427fe7fa-4568-4dbd-b254-bf256c0487b2/RTG-Muenchen-170x170.png",
    "location": {
      "lat": 48.1405883,
      "lng": 11.5584009
    }
  },
  {
    "zipCode": "44137",
    "city": "Dortmund",
    "street": "Koenigswall 15",
    "name": "REWE To Go",
    "phone": "Tel.: 0231-10626093",
    "openingsHours": [
      {
        "weekDays": "Mo Di Mi Do Fr Sa So",
        "from": 0,
        "to": 24
      }
    ],
    "additional": "Unsere Öffnungszeiten",
    "image": "/dam/jcr:60c41685-b95a-4d84-9773-1818011a81be/RTG-Default-170x170.png",
    "location": {
      "lat": 51.5173089,
      "lng": 7.459439600000001
    }
  },
  {
    "zipCode": "45127",
    "city": "Essen",
    "street": "Kettwiger Str. 2-10",
    "name": "REWE To Go",
    "phone": "Tel.: 0201-1026 9057",
    "openingsHours": [
      {
        "weekDays": "Mo Di Mi Do ",
        "from": 7,
        "to": 22
      },
      {
        "weekDays": "Fr Sa",
        "from": 7,
        "to": 24
      },
      {
        "weekDays": "So",
        "from": 11,
        "to": 19
      }
    ],
    "additional": "Unsere Öffnungszeiten",
    "image": "/dam/jcr:1980f3ef-c17f-43aa-a73d-b4b565d36456/RTG-Essen-170x170.png",
    "location": {
      "lat": 51.4533059,
      "lng": 7.0134299
    }
  },
  {
    "zipCode": "50667",
    "city": "Köln",
    "street": "Hohe Str. 63",
    "name": "REWE To Go",
    "phone": "Tel.: 0221-25883220",
    "openingsHours": [
      {
        "weekDays": "Mo Di Mi Do",
        "from": 7,
        "to": 23
      },
      {
        "weekDays": "Fr Sa",
        "from": 7,
        "to": 24
      },
      {
        "weekDays": "So",
        "from": 11,
        "to": 23
      }
    ],
    "additional": "Unsere Öffnungszeiten",
    "image": "/dam/jcr:60c41685-b95a-4d84-9773-1818011a81be/RTG-Default-170x170.png",
    "location": {
      "lat": 50.936665,
      "lng": 6.956216599999999
    }
  },
  {
    "zipCode": "40212",
    "city": "Düsseldorf Stadtmitte",
    "street": "Schadowstr. 87",
    "name": "REWE To Go",
    "phone": "Tel.: 0211-36779168",
    "openingsHours": [
      {
        "weekDays": "Mo Di Mi Do Fr Sa",
        "from": 7,
        "to": 22
      }
    ],
    "additional": "Unsere Öffnungszeiten",
    "image": "/dam/jcr:cbd831b1-8811-4963-b76d-a1414f1339c4/RTG-Duesseldorf-170x170.png",
    "location": {
      "lat": 51.2270135,
      "lng": 6.7859788
    }
  },
  {
    "zipCode": "40213",
    "city": "Düsseldorf",
    "street": "Hunsrückenstr. 54",
    "name": "REWE To Go",
    "phone": "Tel.: 0211-86931359",
    "openingsHours": [
      {
        "weekDays": "Mo Di Mi Do Sa",
        "from": 7,
        "to": 22
      },
      {
        "weekDays": "Fr",
        "from": 7,
        "to": 24
      }
    ],
    "additional": "Unsere Öffnungszeiten",
    "image": "/dam/jcr:cbd831b1-8811-4963-b76d-a1414f1339c4/RTG-Duesseldorf-170x170.png",
    "location": {
      "lat": 51.22553360000001,
      "lng": 6.7758453
    }
  },
  {
    "zipCode": "50667",
    "city": "Köln",
    "street": "Trankgasse 11",
    "name": "REWE To Go",
    "phone": "Tel.: 0221-12072970",
    "openingsHours": [
      {
        "weekDays": "So Mo Di Mi Do Fr Sa",
        "from": 0,
        "to": 24
      }
    ],
    "additional": "Unsere Öffnungszeiten",
    "image": "/dam/jcr:60c41685-b95a-4d84-9773-1818011a81be/RTG-Default-170x170.png",
    "location": {
      "lat": 50.943348,
      "lng": 6.9583333
    }
  },
  {
    "zipCode": "58089",
    "city": "Hagen",
    "street": "Am Hauptbahnhof 16",
    "name": "REWE To Go",
    "phone": "Tel.: 02331-3753093",
    "openingsHours": [
      {
        "weekDays": "So Mo Di Mi Do",
        "from": 5,
        "to": 25
      },
      {
        "weekDays": "Fr Sa",
        "from": 5,
        "to": 26
      }
    ],
    "additional": "Unsere Öffnungszeiten",
    "image": "/dam/jcr:8bf5d80a-510e-40ce-b50f-6123250a104b/RTG-Hagen-170x170.png",
    "location": {
      "lat": 51.36312479999999,
      "lng": 7.462229000000001
    }
  },
  {
    "zipCode": "04103",
    "city": "Leipzig",
    "street": "Willy-Brandt-Platz 7",
    "name": "REWE To Go",
    "phone": "Tel.: 0341-99380994",
    "openingsHours": [
      {
        "weekDays": "Mo Di Mi Do Fr Sa So",
        "from": 6,
        "to": 23
      }
    ],
    "additional": "Unsere Öffnungszeiten",
    "image": "/dam/jcr:60c41685-b95a-4d84-9773-1818011a81be/RTG-Default-170x170.png",
    "location": {
      "lat": 51.3445106,
      "lng": 12.3800895
    }
  },
  {
    "zipCode": "45329",
    "city": "Essen",
    "street": "Karnaper Straße 44",
    "name": "REWE To Go bei Aral",
    "phone": "Tel.: 0201-4366875",
    "openingsHours": [
      {
        "weekDays": "Mo Di Mi Do Fr Sa So",
        "from": 0,
        "to": 24
      }
    ],
    "additional": "Unsere Öffnungszeiten",
    "image": "/dam/jcr:d205ff1d-b544-4c88-9455-59d21eee4d75/rtg_standort_aral_170x170.png",
    "location": {
      "lat": 51.5175677,
      "lng": 7.0077751
    }
  },
  {
    "zipCode": "58511",
    "city": "Lüdenscheid",
    "street": "Werdohler Landstraße 4",
    "name": "REWE To Go bei Aral",
    "phone": "Tel.: 02351-92730",
    "openingsHours": [
      {
        "weekDays": "Mo Di Mi Do Fr Sa So",
        "from": 0,
        "to": 24
      }
    ],
    "additional": "Unsere Öffnungszeiten",
    "image": "/dam/jcr:d205ff1d-b544-4c88-9455-59d21eee4d75/rtg_standort_aral_170x170.png",
    "location": {
      "lat": 51.2283329,
      "lng": 7.6501682
    }
  },
  {
    "zipCode": "45131",
    "city": "Essen",
    "street": "Alfredstraße 121",
    "name": "REWE To Go bei Aral",
    "phone": "Tel.: 0201-772604",
    "openingsHours": [
      {
        "weekDays": "Mo Di Mi Do Fr Sa So",
        "from": 0,
        "to": 24
      }
    ],
    "additional": "Unsere Öffnungszeiten",
    "image": "/dam/jcr:d205ff1d-b544-4c88-9455-59d21eee4d75/rtg_standort_aral_170x170.png",
    "location": {
      "lat": 51.4319825,
      "lng": 7.001987499999999
    }
  },
  {
    "zipCode": "44805",
    "city": "Bochum",
    "street": "Castroper Hellweg 111",
    "name": "REWE To Go bei Aral",
    "phone": "Tel.: 0234-9508090",
    "openingsHours": [
      {
        "weekDays": "Mo Di Mi Do Fr Sa So",
        "from": 0,
        "to": 24
      }
    ],
    "additional": "Unsere Öffnungszeiten",
    "image": "/dam/jcr:d205ff1d-b544-4c88-9455-59d21eee4d75/rtg_standort_aral_170x170.png",
    "location": {
      "lat": 51.5016222,
      "lng": 7.2586428
    }
  },
  {
    "zipCode": "47805",
    "city": "Krefeld",
    "street": "Untergath 210",
    "name": "REWE To Go bei Aral",
    "phone": "Tel.: 02151-557780",
    "openingsHours": [
      {
        "weekDays": "Mo Di Mi Do Fr Sa So",
        "from": 0,
        "to": 24
      }
    ],
    "additional": "Unsere Öffnungszeiten",
    "image": "/dam/jcr:d205ff1d-b544-4c88-9455-59d21eee4d75/rtg_standort_aral_170x170.png",
    "location": {
      "lat": 51.3220822,
      "lng": 6.5911642
    }
  },
  {
    "zipCode": "47441",
    "city": "Moers",
    "street": "Römerstraße 454",
    "name": "REWE To Go bei Aral",
    "phone": "Tel.: 0284-151105",
    "openingsHours": [
      {
        "weekDays": "Mo Di Mi Do Fr Sa So",
        "from": 0,
        "to": 24
      }
    ],
    "additional": "Unsere Öffnungszeiten",
    "image": "/dam/jcr:d205ff1d-b544-4c88-9455-59d21eee4d75/rtg_standort_aral_170x170.png",
    "location": {
      "lat": 51.4436916,
      "lng": 6.661067399999999
    }
  },
  {
    "zipCode": "50735",
    "city": "Köln",
    "street": "Amsterdamer Straße 194",
    "name": "REWE To Go bei Aral",
    "phone": "Tel.: 0221-7127826",
    "openingsHours": [
      {
        "weekDays": "Mo Di Mi Do Fr Sa So",
        "from": 0,
        "to": 24
      }
    ],
    "additional": "Unsere Öffnungszeiten",
    "image": "/dam/jcr:d205ff1d-b544-4c88-9455-59d21eee4d75/rtg_standort_aral_170x170.png",
    "location": {
      "lat": 50.9746293,
      "lng": 6.9700197
    }
  },
  {
    "zipCode": "46562",
    "city": "Voerde",
    "street": "Spellenerstraße 13",
    "name": "REWE To Go bei Aral",
    "phone": "Tel.: 0281-41301",
    "openingsHours": [
      {
        "weekDays": "Mo Di Mi Do Fr Sa So",
        "from": 0,
        "to": 24
      }
    ],
    "additional": "Unsere Öffnungszeiten",
    "image": "/dam/jcr:d205ff1d-b544-4c88-9455-59d21eee4d75/rtg_standort_aral_170x170.png",
    "location": {
      "lat": 51.6291492,
      "lng": 6.6584955
    }
  },
  {
    "zipCode": "45661",
    "city": "Recklinghausen",
    "street": "Bochumer Straße 173",
    "name": "REWE To Go bei Aral",
    "phone": "Tel.: 0236-163663",
    "openingsHours": [
      {
        "weekDays": "Mo Di Mi Do Fr Sa So",
        "from": 0,
        "to": 24
      }
    ],
    "additional": "Unsere Öffnungszeiten",
    "image": "/dam/jcr:d205ff1d-b544-4c88-9455-59d21eee4d75/rtg_standort_aral_170x170.png",
    "location": {
      "lat": 51.5676548,
      "lng": 7.2121195
    }
  },
  {
    "zipCode": "47647",
    "city": "Kerken",
    "street": "Umgehungsstraße 1",
    "name": "REWE To Go bei Aral",
    "phone": "Tel.: 0283-37594",
    "openingsHours": [
      {
        "weekDays": "Mo Di Mi Do Fr Sa So",
        "from": 0,
        "to": 24
      }
    ],
    "additional": "Unsere Öffnungszeiten",
    "image": "/dam/jcr:d205ff1d-b544-4c88-9455-59d21eee4d75/rtg_standort_aral_170x170.png",
    "location": {
      "lat": 51.4426273,
      "lng": 6.4143417
    }
  },
  {
    "zipCode": "41334",
    "city": "Nettetal",
    "street": "Kempener Straße 83",
    "name": "REWE To Go bei Aral",
    "phone": "Tel.: 0215-32387",
    "openingsHours": [
      {
        "weekDays": "Mo Di Mi Do Fr Sa So",
        "from": 0,
        "to": 24
      }
    ],
    "additional": "Unsere Öffnungszeiten",
    "image": "/dam/jcr:d205ff1d-b544-4c88-9455-59d21eee4d75/rtg_standort_aral_170x170.png",
    "location": {
      "lat": 51.31048269999999,
      "lng": 6.2911006
    }
  },
  {
    "zipCode": "41464",
    "city": "Neuss",
    "street": "Bergheimer Straße 252",
    "name": "REWE To Go bei Aral",
    "phone": "Tel.: 02131-41655",
    "openingsHours": [
      {
        "weekDays": "Mo Di Mi Do Fr Sa So",
        "from": 0,
        "to": 24
      }
    ],
    "additional": "Unsere Öffnungszeiten",
    "image": "/dam/jcr:d205ff1d-b544-4c88-9455-59d21eee4d75/rtg_standort_aral_170x170.png",
    "location": {
      "lat": 51.1812348,
      "lng": 6.6883447
    }
  },
  {
    "zipCode": "44379",
    "city": "Dortmund",
    "street": "Baerenbruch 135",
    "name": "REWE To Go bei Aral",
    "phone": "Tel.: 0231-6102302",
    "openingsHours": [
      {
        "weekDays": "Mo Di Mi Do Fr Sa So",
        "from": 0,
        "to": 24
      }
    ],
    "additional": "Unsere Öffnungszeiten",
    "image": "/dam/jcr:d205ff1d-b544-4c88-9455-59d21eee4d75/rtg_standort_aral_170x170.png",
    "location": {
      "lat": 51.519889,
      "lng": 7.3729083
    }
  },
  {
    "zipCode": "44139",
    "city": "Dortmund",
    "street": "Rheinlanddamm 103",
    "name": "REWE To Go bei Aral",
    "phone": "Tel.: 0231-9128872",
    "openingsHours": [
      {
        "weekDays": "Mo Di Mi Do Fr Sa So",
        "from": 0,
        "to": 24
      }
    ],
    "additional": "Unsere Öffnungszeiten",
    "image": "/dam/jcr:d205ff1d-b544-4c88-9455-59d21eee4d75/rtg_standort_aral_170x170.png",
    "location": {
      "lat": 51.49942739999999,
      "lng": 7.471644899999998
    }
  },
  {
    "zipCode": "46236",
    "city": "Bottrop",
    "street": "Hans-Sachs-Straße 64",
    "name": "REWE To Go bei Aral",
    "phone": "Tel.: 0204-16505",
    "openingsHours": [
      {
        "weekDays": "Mo Di Mi Do Fr Sa So",
        "from": 0,
        "to": 24
      }
    ],
    "additional": "Unsere Öffnungszeiten",
    "image": "/dam/jcr:d205ff1d-b544-4c88-9455-59d21eee4d75/rtg_standort_aral_170x170.png",
    "location": {
      "lat": 51.5303073,
      "lng": 6.9244499
    }
  },
  {
    "zipCode": "44807",
    "city": "Bochum",
    "street": "Herner Straße 403",
    "name": "REWE To Go bei Aral",
    "phone": "Tel.: 0234-532070",
    "openingsHours": [
      {
        "weekDays": "Mo Di Mi Do Fr Sa So",
        "from": 0,
        "to": 24
      }
    ],
    "additional": "Unsere Öffnungszeiten",
    "image": "/dam/jcr:d205ff1d-b544-4c88-9455-59d21eee4d75/rtg_standort_aral_170x170.png",
    "location": {
      "lat": 51.5124754,
      "lng": 7.2103344
    }
  },
  {
    "zipCode": "58638",
    "city": "Iserlohn",
    "street": "Dortmunder Straße 110",
    "name": "REWE To Go bei Aral",
    "phone": "Tel.: 02371-27435",
    "openingsHours": [
      {
        "weekDays": "Mo Di Mi Do Fr Sa So",
        "from": 0,
        "to": 24
      }
    ],
    "additional": "Unsere Öffnungszeiten",
    "image": "/dam/jcr:d205ff1d-b544-4c88-9455-59d21eee4d75/rtg_standort_aral_170x170.png",
    "location": {
      "lat": 51.3807207,
      "lng": 7.6816342
    }
  },
  {
    "zipCode": "51109",
    "city": "Köln",
    "street": "Olpener Straße 498",
    "name": "REWE To Go bei Aral",
    "phone": "Tel.: 0221-895143",
    "openingsHours": [
      {
        "weekDays": "Mo Di Mi Do Fr ",
        "from": 5,
        "to": 23
      },
      {
        "weekDays": "Sa ",
        "from": 6,
        "to": 24
      },
      {
        "weekDays": "So",
        "from": 6,
        "to": 23
      }
    ],
    "additional": "Unsere Öffnungszeiten",
    "image": "/dam/jcr:d205ff1d-b544-4c88-9455-59d21eee4d75/rtg_standort_aral_170x170.png",
    "location": {
      "lat": 50.9429588,
      "lng": 7.0511142
    }
  },
  {
    "zipCode": "41379",
    "city": "Brüggen",
    "street": "Klosterstraße 1",
    "name": "REWE To Go bei Aral",
    "phone": "Tel.: 0216-35534",
    "openingsHours": [
      {
        "weekDays": "Mo Di Mi Do Fr Sa ",
        "from": 6,
        "to": 22
      },
      {
        "weekDays": "So",
        "from": 7,
        "to": 22
      }
    ],
    "additional": "Unsere Öffnungszeiten",
    "image": "/dam/jcr:d205ff1d-b544-4c88-9455-59d21eee4d75/rtg_standort_aral_170x170.png",
    "location": {
      "lat": 51.2378622,
      "lng": 6.189292699999999
    }
  },
  {
    "zipCode": "40878",
    "city": "Ratingen",
    "street": "Volkardeyer Straße 54",
    "name": "REWE To Go bei Aral",
    "phone": "Tel.: 02102-43980",
    "openingsHours": [
      {
        "weekDays": "Mo Di Mi Do Fr Sa So",
        "from": 0,
        "to": 24
      }
    ],
    "additional": "Unsere Öffnungszeiten",
    "image": "/dam/jcr:d205ff1d-b544-4c88-9455-59d21eee4d75/rtg_standort_aral_170x170.png",
    "location": {
      "lat": 51.2886369,
      "lng": 6.827652
    }
  },
  {
    "zipCode": "45881",
    "city": "Gelsenkirchen",
    "street": "Overwegstraße 72",
    "name": "REWE To Go bei Aral",
    "phone": "Tel.: 0209-4082034",
    "openingsHours": [
      {
        "weekDays": "Mo Di Mi Do Fr Sa So",
        "from": 0,
        "to": 24
      }
    ],
    "additional": "Unsere Öffnungszeiten",
    "image": "/dam/jcr:d205ff1d-b544-4c88-9455-59d21eee4d75/rtg_standort_aral_170x170.png",
    "location": {
      "lat": 51.5196939,
      "lng": 7.0818359
    }
  },
  {
    "zipCode": "44809",
    "city": "Bochum",
    "street": "Herner Straße 256",
    "name": "REWE To Go bei Aral",
    "phone": "Tel.: 0234-9530941",
    "openingsHours": [
      {
        "weekDays": "Mo Di Mi Do Fr Sa So",
        "from": 0,
        "to": 24
      }
    ],
    "additional": "Unsere Öffnungszeiten",
    "image": "/dam/jcr:d205ff1d-b544-4c88-9455-59d21eee4d75/rtg_standort_aral_170x170.png",
    "location": {
      "lat": 51.50178,
      "lng": 7.2127705
    }
  },
  {
    "zipCode": "41238",
    "city": "Mönchengladbach",
    "street": "Liedberger Straße 25",
    "name": "REWE To Go bei Aral",
    "phone": "Tel.: 0216-682959",
    "openingsHours": [
      {
        "weekDays": "Mo Di Mi Do Fr Sa So",
        "from": 0,
        "to": 24
      }
    ],
    "additional": "Unsere Öffnungszeiten",
    "image": "/dam/jcr:d205ff1d-b544-4c88-9455-59d21eee4d75/rtg_standort_aral_170x170.png",
    "location": {
      "lat": 51.15618749999999,
      "lng": 6.507004999999999
    }
  },
  {
    "zipCode": "45472",
    "city": "Mülheim",
    "street": "Essener Straße 225",
    "name": "REWE To Go bei Aral",
    "phone": "Tel.: 0208-431410",
    "openingsHours": [
      {
        "weekDays": "Mo Di Mi Do Fr Sa So",
        "from": 0,
        "to": 24
      }
    ],
    "additional": "Unsere Öffnungszeiten",
    "image": "/dam/jcr:d205ff1d-b544-4c88-9455-59d21eee4d75/rtg_standort_aral_170x170.png",
    "location": {
      "lat": 51.4307414,
      "lng": 6.923772199999999
    }
  },
  {
    "zipCode": "44793",
    "city": "Bochum",
    "street": "Alleestraße 79",
    "name": "REWE To Go bei Aral",
    "phone": "Tel.: 0234-66401",
    "openingsHours": [
      {
        "weekDays": "Mo Di Mi Do Fr Sa So",
        "from": 0,
        "to": 24
      }
    ],
    "additional": "Unsere Öffnungszeiten",
    "image": "/dam/jcr:d205ff1d-b544-4c88-9455-59d21eee4d75/rtg_standort_aral_170x170.png",
    "location": {
      "lat": 51.4792266,
      "lng": 7.2046212
    }
  },
  {
    "zipCode": "44225",
    "city": "Dortmund",
    "street": "Hagener Straße 156",
    "name": "REWE To Go bei Aral",
    "phone": "Tel.: 0231-731257",
    "openingsHours": [
      {
        "weekDays": "Mo Di Mi Do Fr Sa So",
        "from": 0,
        "to": 24
      }
    ],
    "additional": "Unsere Öffnungszeiten",
    "image": "/dam/jcr:d205ff1d-b544-4c88-9455-59d21eee4d75/rtg_standort_aral_170x170.png",
    "location": {
      "lat": 51.4674148,
      "lng": 7.4599267
    }
  },
  {
    "zipCode": "59229",
    "city": "Ahlen",
    "street": "Beckumer Straße 109",
    "name": "REWE To Go bei Aral",
    "phone": "Tel.: 02382-63484",
    "openingsHours": [
      {
        "weekDays": "Mo Di Mi Do Fr Sa So",
        "from": 0,
        "to": 24
      }
    ],
    "additional": "Unsere Öffnungszeiten",
    "image": "/dam/jcr:d205ff1d-b544-4c88-9455-59d21eee4d75/rtg_standort_aral_170x170.png",
    "location": {
      "lat": 51.7649536,
      "lng": 7.9121179
    }
  },
  {
    "zipCode": "47807",
    "city": "Krefeld",
    "street": "Kölner Straße 316",
    "name": "REWE To Go bei Aral",
    "phone": "Tel.: 02151-315131",
    "openingsHours": [
      {
        "weekDays": "Mo Di Mi Do Fr Sa So",
        "from": 5,
        "to": 24
      }
    ],
    "additional": "Unsere Öffnungszeiten",
    "image": "/dam/jcr:d205ff1d-b544-4c88-9455-59d21eee4d75/rtg_standort_aral_170x170.png",
    "location": {
      "lat": 51.313614,
      "lng": 6.579447099999999
    }
  },
  {
    "zipCode": "52353",
    "city": "Düren",
    "street": "Nordstraße / B 56",
    "name": "REWE To Go bei Aral",
    "phone": "Tel.: 02421-204542",
    "openingsHours": [
      {
        "weekDays": "Mo Di Mi Do Fr Sa So",
        "from": 0,
        "to": 24
      }
    ],
    "additional": "Unsere Öffnungszeiten",
    "image": "/dam/jcr:d205ff1d-b544-4c88-9455-59d21eee4d75/rtg_standort_aral_170x170.png",
    "location": {
      "lat": 50.8269967,
      "lng": 6.458632799999999
    }
  },
  {
    "zipCode": "42389",
    "city": "Wuppertal",
    "street": "Langerfelder Straße 121",
    "name": "REWE To Go bei Aral",
    "phone": "Tel.: 0202-2602549",
    "openingsHours": [
      {
        "weekDays": "Mo Di Mi Do Fr Sa So",
        "from": 0,
        "to": 24
      }
    ],
    "additional": "Unsere Öffnungszeiten",
    "image": "/dam/jcr:d205ff1d-b544-4c88-9455-59d21eee4d75/rtg_standort_aral_170x170.png",
    "location": {
      "lat": 51.2740509,
      "lng": 7.238720199999999
    }
  },
  {
    "zipCode": "47119",
    "city": "Duisburg",
    "street": "Hafenstraße 43 A",
    "name": "REWE To Go bei Aral",
    "phone": "Tel.: 0203-873020",
    "openingsHours": [
      {
        "weekDays": "Mo Di Mi Do Fr Sa So",
        "from": 0,
        "to": 24
      }
    ],
    "additional": "Unsere Öffnungszeiten",
    "image": "/dam/jcr:d205ff1d-b544-4c88-9455-59d21eee4d75/rtg_standort_aral_170x170.png",
    "location": {
      "lat": 51.4529721,
      "lng": 6.7403321
    }
  },
  {
    "zipCode": "40221",
    "city": "Düsseldorf",
    "street": "Südring 115",
    "name": "REWE To Go bei Aral",
    "phone": "Tel.: 0211-392503",
    "openingsHours": [
      {
        "weekDays": "Mo Di Mi Do Fr Sa So",
        "from": 0,
        "to": 24
      }
    ],
    "additional": "Unsere Öffnungszeiten",
    "image": "/dam/jcr:d205ff1d-b544-4c88-9455-59d21eee4d75/rtg_standort_aral_170x170.png",
    "location": {
      "lat": 51.2009796,
      "lng": 6.7630064
    }
  },
  {
    "zipCode": "50668",
    "city": "Köln",
    "street": "Riehler Straße 12-14",
    "name": "REWE To Go bei Aral",
    "phone": "Tel.: 0221-9726040",
    "openingsHours": [
      {
        "weekDays": "Mo Di Mi Do Fr Sa So",
        "from": 0,
        "to": 24
      }
    ],
    "additional": "Unsere Öffnungszeiten",
    "image": "/dam/jcr:d205ff1d-b544-4c88-9455-59d21eee4d75/rtg_standort_aral_170x170.png",
    "location": {
      "lat": 50.9525115,
      "lng": 6.9616739
    }
  },
  {
    "zipCode": "40547",
    "city": "Düsseldorf",
    "street": "Luetticher Straße 108",
    "name": "REWE To Go bei Aral",
    "phone": "Tel.: 0211-552422",
    "openingsHours": [
      {
        "weekDays": "Mo Di Mi Do Fr Sa So",
        "from": 0,
        "to": 24
      }
    ],
    "additional": "Unsere Öffnungszeiten",
    "image": "/dam/jcr:d205ff1d-b544-4c88-9455-59d21eee4d75/rtg_standort_aral_170x170.png",
    "location": {
      "lat": 51.2416329,
      "lng": 6.7434775
    }
  },
  {
    "zipCode": "40474",
    "city": "Düsseldorf",
    "street": "Freiligrathplatz 32",
    "name": "REWE To Go bei Aral",
    "phone": "Tel.: 0211-4350080",
    "openingsHours": [
      {
        "weekDays": "Mo Di Mi Do Fr Sa So",
        "from": 0,
        "to": 24
      }
    ],
    "additional": "Unsere Öffnungszeiten",
    "image": "/dam/jcr:d205ff1d-b544-4c88-9455-59d21eee4d75/rtg_standort_aral_170x170.png",
    "location": {
      "lat": 51.264843,
      "lng": 6.7535298
    }
  },
  {
    "zipCode": "44789",
    "city": "Bochum",
    "street": "Wittener Straße 66",
    "name": "REWE To Go bei Aral",
    "phone": "Tel.: 0234-335915",
    "openingsHours": [
      {
        "weekDays": "Mo Di Mi Do Fr Sa So",
        "from": 0,
        "to": 24
      }
    ],
    "additional": "Unsere Öffnungszeiten",
    "image": "/dam/jcr:d205ff1d-b544-4c88-9455-59d21eee4d75/rtg_standort_aral_170x170.png",
    "location": {
      "lat": 51.4773566,
      "lng": 7.227761799999999
    }
  },
  {
    "zipCode": "53119",
    "city": "Bonn",
    "street": "Potsdamer Platz 2",
    "name": "REWE To Go bei Aral",
    "phone": "Tel.: 0228-7668731",
    "openingsHours": [
      {
        "weekDays": "Mo Di Mi Do Fr Sa So",
        "from": 0,
        "to": 24
      }
    ],
    "additional": "Unsere Öffnungszeiten",
    "image": "/dam/jcr:d205ff1d-b544-4c88-9455-59d21eee4d75/rtg_standort_aral_170x170.png",
    "location": {
      "lat": 50.7432154,
      "lng": 7.0791495
    }
  },
  {
    "zipCode": "45549",
    "city": "Sprockhövel",
    "street": "Bochumer Straße 4",
    "name": "REWE To Go bei Aral",
    "phone": "Tel.: 02324-74188",
    "openingsHours": [
      {
        "weekDays": "Mo Di Mi Do Fr Sa So",
        "from": 0,
        "to": 24
      }
    ],
    "additional": "Unsere Öffnungszeiten",
    "image": "/dam/jcr:d205ff1d-b544-4c88-9455-59d21eee4d75/rtg_standort_aral_170x170.png",
    "location": {
      "lat": 51.36698699999999,
      "lng": 7.2529606
    }
  },
  {
    "zipCode": "41462",
    "city": "Neuss",
    "street": "Engelbertstraße",
    "name": "REWE To Go bei Aral",
    "phone": "Tel.: 02131-561102",
    "openingsHours": [
      {
        "weekDays": "Mo Di Mi Do Fr",
        "from": 6,
        "to": 23
      },
      {
        "weekDays": "Sa",
        "from": 7,
        "to": 22
      },
      {
        "weekDays": "So",
        "from": 8,
        "to": 22
      }
    ],
    "additional": "Unsere Öffnungszeiten",
    "image": "/dam/jcr:d205ff1d-b544-4c88-9455-59d21eee4d75/rtg_standort_aral_170x170.png",
    "location": {
      "lat": 51.2061033,
      "lng": 6.670452699999999
    }
  },
  {
    "zipCode": "51379",
    "city": "Leverkusen",
    "street": "Bonner Straße 2",
    "name": "REWE To Go bei Aral",
    "phone": "Tel.: 02171-715830",
    "openingsHours": [
      {
        "weekDays": "Mo Di Mi Do Fr Sa So",
        "from": 0,
        "to": 24
      }
    ],
    "additional": "Unsere Öffnungszeiten",
    "image": "/dam/jcr:d205ff1d-b544-4c88-9455-59d21eee4d75/rtg_standort_aral_170x170.png",
    "location": {
      "lat": 51.0667327,
      "lng": 6.9907273
    }
  },
  {
    "zipCode": "51149",
    "city": "Köln",
    "street": "Kölner Straße 255",
    "name": "REWE To Go bei Aral",
    "phone": "Tel.: 02203-17951",
    "openingsHours": [
      {
        "weekDays": "Mo Di Mi Do Fr Sa So",
        "from": 0,
        "to": 24
      }
    ],
    "additional": "Unsere Öffnungszeiten",
    "image": "/dam/jcr:d205ff1d-b544-4c88-9455-59d21eee4d75/rtg_standort_aral_170x170.png",
    "location": {
      "lat": 50.903699,
      "lng": 7.0209724
    }
  },
  {
    "zipCode": "44137",
    "city": "Dortmund",
    "street": "Lindemannstraße 65",
    "name": "REWE To Go bei Aral",
    "phone": "Tel.: 0231-9003692",
    "openingsHours": [
      {
        "weekDays": "Mo Di Mi Do Fr Sa So",
        "from": 0,
        "to": 24
      }
    ],
    "additional": "Unsere Öffnungszeiten",
    "image": "/dam/jcr:d205ff1d-b544-4c88-9455-59d21eee4d75/rtg_standort_aral_170x170.png",
    "location": {
      "lat": 51.50144539999999,
      "lng": 7.451607699999999
    }
  },
  {
    "zipCode": "52428",
    "city": "Jülich",
    "street": "Neusser Straße 45",
    "name": "REWE To Go bei Aral",
    "phone": "Tel.: 02461-2180",
    "openingsHours": [
      {
        "weekDays": "Mo Di Mi Do Fr Sa So",
        "from": 0,
        "to": 24
      }
    ],
    "additional": "Unsere Öffnungszeiten",
    "image": "/dam/jcr:d205ff1d-b544-4c88-9455-59d21eee4d75/rtg_standort_aral_170x170.png",
    "location": {
      "lat": 50.9279913,
      "lng": 6.365577
    }
  },
  {
    "zipCode": "48149",
    "city": "Münster",
    "street": "Steinfurter Straße 1-3",
    "name": "REWE To Go bei Aral",
    "phone": "Tel.: 0251-22822",
    "openingsHours": [
      {
        "weekDays": "Mo Di Mi Do Fr Sa So",
        "from": 0,
        "to": 24
      }
    ],
    "additional": "Unsere Öffnungszeiten",
    "image": "/dam/jcr:d205ff1d-b544-4c88-9455-59d21eee4d75/rtg_standort_aral_170x170.png",
    "location": {
      "lat": 51.967316,
      "lng": 7.61399
    }
  },
  {
    "zipCode": "42653",
    "city": "Solingen",
    "street": "Schlagbaumer Straße 66",
    "name": "REWE To Go bei Aral",
    "phone": "Tel.: 0212-2541192",
    "openingsHours": [
      {
        "weekDays": "Mo Di Mi Do Fr Sa So",
        "from": 0,
        "to": 24
      }
    ],
    "additional": "Unsere Öffnungszeiten",
    "image": "/dam/jcr:d205ff1d-b544-4c88-9455-59d21eee4d75/rtg_standort_aral_170x170.png",
    "location": {
      "lat": 51.1849715,
      "lng": 7.0798174
    }
  },
  {
    "zipCode": "46145",
    "city": "Oberhausen",
    "street": "Teutoburger Straße 1-3",
    "name": "REWE To Go bei Aral",
    "phone": "Tel.: 0208-667060",
    "openingsHours": [
      {
        "weekDays": "Mo Di Mi Do Fr Sa So",
        "from": 0,
        "to": 24
      }
    ],
    "additional": "Unsere Öffnungszeiten",
    "image": "/dam/jcr:d205ff1d-b544-4c88-9455-59d21eee4d75/rtg_standort_aral_170x170.png",
    "location": {
      "lat": 51.5166953,
      "lng": 6.857119099999999
    }
  },
  {
    "zipCode": "42489",
    "city": "Wülfrath",
    "street": "Wilhelmstraße 24-30",
    "name": "REWE To Go bei Aral",
    "phone": "Tel.: 02058-74220",
    "openingsHours": [
      {
        "weekDays": "Mo Di Mi Do Fr Sa So",
        "from": 0,
        "to": 24
      }
    ],
    "additional": "Unsere Öffnungszeiten",
    "image": "/dam/jcr:d205ff1d-b544-4c88-9455-59d21eee4d75/rtg_standort_aral_170x170.png",
    "location": {
      "lat": 51.2852969,
      "lng": 7.0468989
    }
  },
  {
    "zipCode": "45326",
    "city": "Essen",
    "street": "Altenessener Straße 288",
    "name": "REWE To Go bei Aral",
    "phone": "Tel.: 0201-8378311",
    "openingsHours": [
      {
        "weekDays": "Mo Di Mi Do Fr Sa So",
        "from": 0,
        "to": 24
      }
    ],
    "additional": "Unsere Öffnungszeiten",
    "image": "/dam/jcr:d205ff1d-b544-4c88-9455-59d21eee4d75/rtg_standort_aral_170x170.png",
    "location": {
      "lat": 51.4922641,
      "lng": 7.0100737
    }
  },
  {
    "zipCode": "50933",
    "city": "Köln",
    "street": "Widdersdorfer Straße 427-431",
    "name": "REWE To Go bei Aral",
    "phone": "Tel.: 0221-5894077",
    "openingsHours": [
      {
        "weekDays": "Mo Di Mi Do Fr Sa So",
        "from": 0,
        "to": 24
      }
    ],
    "additional": "Unsere Öffnungszeiten",
    "image": "/dam/jcr:d205ff1d-b544-4c88-9455-59d21eee4d75/rtg_standort_aral_170x170.png",
    "location": {
      "lat": 50.946796,
      "lng": 6.8805656
    }
  },
  {
    "zipCode": "52249",
    "city": "Eschweiler",
    "street": "Rue de Wattrelos 11",
    "name": "REWE To Go bei Aral",
    "phone": "Tel.: 02403-830005",
    "openingsHours": [
      {
        "weekDays": "Mo Di Mi Do Fr Sa So",
        "from": 0,
        "to": 24
      }
    ],
    "additional": "Unsere Öffnungszeiten",
    "image": "/dam/jcr:d205ff1d-b544-4c88-9455-59d21eee4d75/rtg_standort_aral_170x170.png",
    "location": {
      "lat": 50.8252244,
      "lng": 6.24681
    }
  },
  {
    "zipCode": "45549",
    "city": "Sprockhövel",
    "street": "Wittener Straße 68",
    "name": "REWE To Go bei Aral",
    "phone": "Tel.: 02339-2796",
    "openingsHours": [
      {
        "weekDays": "Mo Di Mi Do Fr Sa So",
        "from": 0,
        "to": 24
      }
    ],
    "additional": "Unsere Öffnungszeiten",
    "image": "/dam/jcr:d205ff1d-b544-4c88-9455-59d21eee4d75/rtg_standort_aral_170x170.png",
    "location": {
      "lat": 51.3403563,
      "lng": 7.289927299999999
    }
  },
  {
    "zipCode": "51371",
    "city": "Leverkusen",
    "street": "Solinger Straße 67",
    "name": "REWE To Go bei Aral",
    "phone": "Tel.: 0214-21349",
    "openingsHours": [
      {
        "weekDays": "Mo Di Mi Do Fr Sa So",
        "from": 0,
        "to": 24
      }
    ],
    "additional": "Unsere Öffnungszeiten",
    "image": "/dam/jcr:d205ff1d-b544-4c88-9455-59d21eee4d75/rtg_standort_aral_170x170.png",
    "location": {
      "lat": 51.0560321,
      "lng": 6.9539134
    }
  },
  {
    "zipCode": "42549",
    "city": "Velbert",
    "street": "Heidestraße 116-120",
    "name": "REWE To Go bei Aral",
    "phone": "Tel.: 02051-255786",
    "openingsHours": [
      {
        "weekDays": "Mo Di Mi Do Fr Sa So",
        "from": 0,
        "to": 24
      }
    ],
    "additional": "Unsere Öffnungszeiten",
    "image": "/dam/jcr:d205ff1d-b544-4c88-9455-59d21eee4d75/rtg_standort_aral_170x170.png",
    "location": {
      "lat": 51.3316795,
      "lng": 7.038327
    }
  },
  {
    "zipCode": "42113",
    "city": "Wuppertal",
    "street": "Nevigeser Straße 31",
    "name": "REWE To Go bei Aral",
    "phone": "Tel.: 0202-2761355",
    "openingsHours": [
      {
        "weekDays": "Mo Di Mi Do Fr Sa So",
        "from": 0,
        "to": 24
      }
    ],
    "additional": "Unsere Öffnungszeiten",
    "image": "/dam/jcr:d205ff1d-b544-4c88-9455-59d21eee4d75/rtg_standort_aral_170x170.png",
    "location": {
      "lat": 51.2686313,
      "lng": 7.1271996
    }
  },
  {
    "zipCode": "51103",
    "city": "Köln",
    "street": "Frankfurter Straße 390",
    "name": "REWE To Go bei Aral",
    "phone": "Tel.: 0221-871436",
    "openingsHours": [
      {
        "weekDays": "Mo Di Mi Do Fr Sa So",
        "from": 0,
        "to": 24
      }
    ],
    "additional": "Unsere Öffnungszeiten",
    "image": "/dam/jcr:d205ff1d-b544-4c88-9455-59d21eee4d75/rtg_standort_aral_170x170.png",
    "location": {
      "lat": 50.9427685,
      "lng": 7.0272565
    }
  },
  {
    "zipCode": "50321",
    "city": "Brühl",
    "street": "Kölnstraße 272",
    "name": "REWE To Go bei Aral",
    "phone": "Tel.: 0223-2411019",
    "openingsHours": [
      {
        "weekDays": "Mo Di Mi Do Fr Sa So",
        "from": 0,
        "to": 24
      }
    ],
    "additional": "Unsere Öffnungszeiten",
    "image": "/dam/jcr:d205ff1d-b544-4c88-9455-59d21eee4d75/rtg_standort_aral_170x170.png",
    "location": {
      "lat": 50.8454109,
      "lng": 6.9153954
    }
  },
  {
    "zipCode": "42285",
    "city": "Wuppertal",
    "street": "Friedr.-Engels-Allee 237",
    "name": "REWE To Go bei Aral",
    "phone": "Tel.: 0202-81457",
    "openingsHours": [
      {
        "weekDays": "Mo Di Mi Do Fr Sa So",
        "from": 0,
        "to": 24
      }
    ],
    "additional": "Unsere Öffnungszeiten",
    "image": "/dam/jcr:d205ff1d-b544-4c88-9455-59d21eee4d75/rtg_standort_aral_170x170.png",
    "location": {
      "lat": 51.2634198,
      "lng": 7.1775191
    }
  },
  {
    "zipCode": "46236",
    "city": "Bottrop",
    "street": "Friedrich-Ebert-Str. 113",
    "name": "REWE To Go bei Aral",
    "phone": "Tel.: 02041-22389",
    "openingsHours": [
      {
        "weekDays": "Mo Di Mi Do Fr Sa So",
        "from": 0,
        "to": 24
      }
    ],
    "additional": "Unsere Öffnungszeiten",
    "image": "/dam/jcr:d205ff1d-b544-4c88-9455-59d21eee4d75/rtg_standort_aral_170x170.png",
    "location": {
      "lat": 51.519777,
      "lng": 6.9312591
    }
  },
  {
    "zipCode": "47058",
    "city": "Duisburg",
    "street": "Kardinal-Galen-Straße 106",
    "name": "REWE To Go bei Aral",
    "phone": "Tel.: 02033-31435",
    "openingsHours": [
      {
        "weekDays": "Mo Di Mi Do Fr Sa So",
        "from": 0,
        "to": 24
      }
    ],
    "additional": "Unsere Öffnungszeiten",
    "image": "/dam/jcr:d205ff1d-b544-4c88-9455-59d21eee4d75/rtg_standort_aral_170x170.png",
    "location": {
      "lat": 51.4372133,
      "lng": 6.7766236
    }
  },
  {
    "zipCode": "47475",
    "city": "Kamp-Lintfort",
    "street": "Moerser Straße 470-472",
    "name": "REWE To Go bei Aral",
    "phone": "Tel.: 02842-93567",
    "openingsHours": [
      {
        "weekDays": "Mo Di Mi Do Fr Sa So",
        "from": 0,
        "to": 24
      }
    ],
    "additional": "Unsere Öffnungszeiten",
    "image": "/dam/jcr:d205ff1d-b544-4c88-9455-59d21eee4d75/rtg_standort_aral_170x170.png",
    "location": {
      "lat": 51.4990193,
      "lng": 6.568494599999999
    }
  },
  {
    "zipCode": "46045",
    "city": "Oberhausen",
    "street": "Mülheimer Straße 278-284",
    "name": "REWE To Go bei Aral",
    "phone": "Tel.: 0208-8830797",
    "openingsHours": [
      {
        "weekDays": "Mo Di Mi Do Fr Sa So",
        "from": 0,
        "to": 24
      }
    ],
    "additional": "Unsere Öffnungszeiten",
    "image": "/dam/jcr:d205ff1d-b544-4c88-9455-59d21eee4d75/rtg_standort_aral_170x170.png",
    "location": {
      "lat": 51.46689300000001,
      "lng": 6.864605
    }
  },
  {
    "zipCode": "50739",
    "city": "Köln",
    "street": "Escher Straße 273",
    "name": "REWE To Go bei Aral",
    "phone": "Tel.: 0221-171612",
    "openingsHours": [
      {
        "weekDays": "Mo Di Mi Do Fr Sa So",
        "from": 0,
        "to": 24
      }
    ],
    "additional": "Unsere Öffnungszeiten",
    "image": "/dam/jcr:d205ff1d-b544-4c88-9455-59d21eee4d75/rtg_standort_aral_170x170.png",
    "location": {
      "lat": 50.969288,
      "lng": 6.9271197
    }
  },
  {
    "zipCode": "52146",
    "city": "Würselen",
    "street": "Hauptstraße 384",
    "name": "REWE To Go bei Aral",
    "phone": "Tel.: 02405-92738",
    "openingsHours": [
      {
        "weekDays": "Mo Di Mi Do Fr Sa So",
        "from": 0,
        "to": 24
      }
    ],
    "additional": "Unsere Öffnungszeiten",
    "image": "/dam/jcr:d205ff1d-b544-4c88-9455-59d21eee4d75/rtg_standort_aral_170x170.png",
    "location": {
      "lat": 50.8094377,
      "lng": 6.143695399999999
    }
  },
  {
    "zipCode": "45481",
    "city": "Mülheim",
    "street": "Grossenbaumer Straße 67",
    "name": "REWE To Go bei Aral",
    "phone": "Tel.: 0208-423854",
    "openingsHours": [
      {
        "weekDays": "Mo Di Mi Do Fr Sa",
        "from": 6,
        "to": 22
      },
      {
        "weekDays": "So",
        "from": 7,
        "to": 22
      }
    ],
    "additional": "Unsere Öffnungszeiten",
    "image": "/dam/jcr:d205ff1d-b544-4c88-9455-59d21eee4d75/rtg_standort_aral_170x170.png",
    "location": {
      "lat": 51.4094986,
      "lng": 6.8537804
    }
  },
  {
    "zipCode": "58455",
    "city": "Witten",
    "street": "Sprockhöveler Straße 147",
    "name": "REWE To Go bei Aral",
    "phone": "Tel.: 02302-274691",
    "openingsHours": [
      {
        "weekDays": "Mo Di Mi Do Fr Sa So",
        "from": 5,
        "to": 24
      }
    ],
    "additional": "Unsere Öffnungszeiten",
    "image": "/dam/jcr:d205ff1d-b544-4c88-9455-59d21eee4d75/rtg_standort_aral_170x170.png",
    "location": {
      "lat": 51.4377176,
      "lng": 7.321144500000001
    }
  },
  {
    "zipCode": "90443",
    "city": "Nürnberg",
    "street": "Bahnhofsplatz 9",
    "name": "REWE To Go",
    "phone": "Tel.: 0911-23425210",
    "openingsHours": [
      {
        "weekDays": "Mo Di Mi Do Fr Sa So",
        "from": 0,
        "to": 24
      }
    ],
    "additional": "Unsere Öffnungszeiten",
    "image": "/dam/jcr:60c41685-b95a-4d84-9773-1818011a81be/RTG-Default-170x170.png",
    "location": {
      "lat": 49.4460339,
      "lng": 11.0816934
    }
  },
  {
    "zipCode": "56068",
    "city": "Koblenz",
    "street": "Löhrstr. 62",
    "name": "REWE To Go",
    "phone": "Tel.: 0261-13343063",
    "openingsHours": [
      {
        "weekDays": "Mo Di Mi Do Fr Sa",
        "from": 7,
        "to": 24
      },
      {
        "weekDays": "So",
        "from": 8,
        "to": 24
      }
    ],
    "additional": "Unsere Öffnungszeiten",
    "image": "/dam/jcr:60c41685-b95a-4d84-9773-1818011a81be/RTG-Default-170x170.png",
    "location": {
      "lat": 50.3585009,
      "lng": 7.5926693
    }
  },
  {
    "zipCode": "60329",
    "city": "Frankfurt a. M.",
    "street": "Kaiserstr. 48 ",
    "name": "REWE To Go",
    "phone": "Tel.: 069-23805973",
    "openingsHours": [
      {
        "weekDays": "Mo Di Mi Do Fr",
        "from": 6,
        "to": 24
      },
      {
        "weekDays": "Sa So ",
        "from": 8,
        "to": 22
      }
    ],
    "additional": "Unsere Öffnungszeiten",
    "image": "/dam/jcr:60c41685-b95a-4d84-9773-1818011a81be/RTG-Default-170x170.png",
    "location": {
      "lat": 50.1089341,
      "lng": 8.668947
    }
  },
  {
    "zipCode": "53474",
    "city": "Bad Neuenahr-Ahrweil",
    "street": "Sebastianstraße 158",
    "name": "REWE To Go bei Aral",
    "phone": "Tel.: 02641-35033",
    "openingsHours": [
      {
        "weekDays": "Mo Di Mi Do Fr Sa",
        "from": 6,
        "to": 22
      },
      {
        "weekDays": "So",
        "from": 7,
        "to": 22
      }
    ],
    "additional": "Unsere Öffnungszeiten",
    "image": "/dam/jcr:d205ff1d-b544-4c88-9455-59d21eee4d75/rtg_standort_aral_170x170.png",
    "location": {
      "lat": 50.545721,
      "lng": 7.111949699999999
    }
  },
  {
    "zipCode": "51067",
    "city": "Köln",
    "street": "Berg.-Gladbacher Str. 417",
    "name": "REWE To Go bei Aral",
    "phone": "Tel.: 0221-632555",
    "openingsHours": [
      {
        "weekDays": "Mo Di Mi Do Fr Sa So",
        "from": 0,
        "to": 24
      }
    ],
    "additional": "Unsere Öffnungszeiten",
    "image": "/dam/jcr:d205ff1d-b544-4c88-9455-59d21eee4d75/rtg_standort_aral_170x170.png",
    "location": {
      "lat": 50.9677641,
      "lng": 7.035129700000001
    }
  },
  {
    "zipCode": "59075",
    "city": "Hamm",
    "street": "Hammer Straße 231",
    "name": "REWE To Go bei Aral",
    "phone": "Tel.: 02381-788669",
    "openingsHours": [
      {
        "weekDays": "Mo Di Mi Do Fr Sa So",
        "from": 0,
        "to": 24
      }
    ],
    "additional": "Unsere Öffnungszeiten",
    "image": "/dam/jcr:d205ff1d-b544-4c88-9455-59d21eee4d75/rtg_standort_aral_170x170.png",
    "location": {
      "lat": 51.6900031,
      "lng": 7.7753637
    }
  },
  {
    "zipCode": "48153",
    "city": "Münster",
    "street": "Hammer Straße 311-313",
    "name": "REWE To Go bei Aral",
    "phone": "Tel.: 0251-78109",
    "openingsHours": [
      {
        "weekDays": "Mo Di Mi Do Fr Sa So",
        "from": 0,
        "to": 24
      }
    ],
    "additional": "Unsere Öffnungszeiten",
    "image": "/dam/jcr:d205ff1d-b544-4c88-9455-59d21eee4d75/rtg_standort_aral_170x170.png",
    "location": {
      "lat": 51.93183,
      "lng": 7.627429999999999
    }
  },
  {
    "zipCode": "60386",
    "city": "Frankfurt",
    "street": "Ratsweg 12",
    "name": "REWE To Go bei Aral",
    "phone": "Tel.: 069-413968",
    "openingsHours": [
      {
        "weekDays": "Mo Di Mi Do Fr Sa So",
        "from": 0,
        "to": 24
      }
    ],
    "additional": "Unsere Öffnungszeiten",
    "image": "/dam/jcr:d205ff1d-b544-4c88-9455-59d21eee4d75/rtg_standort_aral_170x170.png",
    "location": {
      "lat": 50.1234607,
      "lng": 8.723781599999999
    }
  },
  {
    "zipCode": "49074",
    "city": "Osnabrück",
    "street": "Alte Poststraße 2",
    "name": "REWE To Go bei Aral",
    "phone": "Tel.: 0541-21730",
    "openingsHours": [
      {
        "weekDays": "Mo Di Mi Do Fr Sa So",
        "from": 0,
        "to": 24
      }
    ],
    "additional": "Unsere Öffnungszeiten",
    "image": "/dam/jcr:d205ff1d-b544-4c88-9455-59d21eee4d75/rtg_standort_aral_170x170.png",
    "location": {
      "lat": 52.2766112,
      "lng": 8.0553379
    }
  },
  {
    "zipCode": "56410",
    "city": "Montabaur",
    "street": "Alleestraße 18",
    "name": "REWE To Go bei Aral",
    "phone": "Tel.: 02602-917369",
    "openingsHours": [
      {
        "weekDays": "Mo Di Mi Do Fr Sa So",
        "from": 0,
        "to": 24
      }
    ],
    "additional": "Unsere Öffnungszeiten",
    "image": "/dam/jcr:d205ff1d-b544-4c88-9455-59d21eee4d75/rtg_standort_aral_170x170.png",
    "location": {
      "lat": 50.4400651,
      "lng": 7.8300705
    }
  },
  {
    "zipCode": "60314",
    "city": "Frankfurt",
    "street": "Hanauer Landstraße 34-40",
    "name": "REWE To Go bei Aral",
    "phone": "Tel.: 069-491523",
    "openingsHours": [
      {
        "weekDays": "Mo Di Mi Do Fr Sa So",
        "from": 6,
        "to": 23
      }
    ],
    "additional": "Unsere Öffnungszeiten",
    "image": "/dam/jcr:d205ff1d-b544-4c88-9455-59d21eee4d75/rtg_standort_aral_170x170.png",
    "location": {
      "lat": 50.11268,
      "lng": 8.69999
    }
  },
  {
    "zipCode": "73614",
    "city": "Schorndorf",
    "street": "Stuttgarter Straße 36",
    "name": "REWE To Go bei Aral",
    "phone": "Tel.: 07181-979888",
    "openingsHours": [
      {
        "weekDays": "Mo Di Mi Do Fr Sa So",
        "from": 0,
        "to": 24
      }
    ],
    "additional": "Unsere Öffnungszeiten",
    "image": "/dam/jcr:d205ff1d-b544-4c88-9455-59d21eee4d75/rtg_standort_aral_170x170.png",
    "location": {
      "lat": 48.8057712,
      "lng": 9.515218599999999
    }
  },
  {
    "zipCode": "55120",
    "city": "Mainz",
    "street": "Rheinallee 207",
    "name": "REWE To Go bei Aral",
    "phone": "Tel.: 06131-687011",
    "openingsHours": [
      {
        "weekDays": "Mo Di Mi Do Fr Sa So",
        "from": 0,
        "to": 24
      }
    ],
    "additional": "Unsere Öffnungszeiten",
    "image": "/dam/jcr:d205ff1d-b544-4c88-9455-59d21eee4d75/rtg_standort_aral_170x170.png",
    "location": {
      "lat": 50.0271451,
      "lng": 8.222911
    }
  },
  {
    "zipCode": "50999",
    "city": "Köln",
    "street": "Kölnstraße 1",
    "name": "REWE To Go bei Aral",
    "phone": "Tel.: 02236-962590",
    "openingsHours": [
      {
        "weekDays": "Mo Di Mi Do Fr Sa So",
        "from": 0,
        "to": 24
      }
    ],
    "additional": "Unsere Öffnungszeiten",
    "image": "/dam/jcr:d205ff1d-b544-4c88-9455-59d21eee4d75/rtg_standort_aral_170x170.png",
    "location": {
      "lat": 50.8697998,
      "lng": 7.005386799999999
    }
  },
  {
    "zipCode": "31139",
    "city": "Hildesheim",
    "street": "Alfelder Straße 99",
    "name": "REWE To Go bei Aral",
    "phone": "Tel.: 05121-43480",
    "openingsHours": [
      {
        "weekDays": "Mo Di Mi Do Fr Sa So",
        "from": 0,
        "to": 24
      }
    ],
    "additional": "Unsere Öffnungszeiten",
    "image": "/dam/jcr:d205ff1d-b544-4c88-9455-59d21eee4d75/rtg_standort_aral_170x170.png",
    "location": {
      "lat": 52.1471341,
      "lng": 9.9385985
    }
  },
  {
    "zipCode": "60389",
    "city": "Frankfurt",
    "street": "Friedberger Landstr. 300",
    "name": "REWE To Go bei Aral",
    "phone": "Tel.: 069-9551070",
    "openingsHours": [
      {
        "weekDays": "Mo Di Mi Do Fr Sa So",
        "from": 0,
        "to": 24
      }
    ],
    "additional": "Unsere Öffnungszeiten",
    "image": "/dam/jcr:d205ff1d-b544-4c88-9455-59d21eee4d75/rtg_standort_aral_170x170.png",
    "location": {
      "lat": 50.1336599,
      "lng": 8.696140399999999
    }
  },
  {
    "zipCode": "71332",
    "city": "Waiblingen",
    "street": "Alte Bundesstraße 25",
    "name": "REWE To Go bei Aral",
    "phone": "Tel.: 07151-905014",
    "openingsHours": [
      {
        "weekDays": "Mo Di Mi Do Fr Sa So",
        "from": 0,
        "to": 24
      }
    ],
    "additional": "Unsere Öffnungszeiten",
    "image": "/dam/jcr:d205ff1d-b544-4c88-9455-59d21eee4d75/rtg_standort_aral_170x170.png",
    "location": {
      "lat": 48.8247829,
      "lng": 9.3202154
    }
  },
  {
    "zipCode": "70376",
    "city": "Stuttgart",
    "street": "Pragstraße 138 A",
    "name": "REWE To Go bei Aral",
    "phone": "Tel.: 0711-8560500",
    "openingsHours": [
      {
        "weekDays": "Mo Di Mi Do Fr Sa So",
        "from": 0,
        "to": 24
      }
    ],
    "additional": "Unsere Öffnungszeiten",
    "image": "/dam/jcr:d205ff1d-b544-4c88-9455-59d21eee4d75/rtg_standort_aral_170x170.png",
    "location": {
      "lat": 48.8073949,
      "lng": 9.193864
    }
  },
  {
    "zipCode": "65189",
    "city": "Wiesbaden",
    "street": "Mainzer Straße 103",
    "name": "REWE To Go bei Aral",
    "phone": "Tel.: 0611-74478",
    "openingsHours": [
      {
        "weekDays": "Mo Di Mi Do Fr Sa So",
        "from": 0,
        "to": 24
      }
    ],
    "additional": "Unsere Öffnungszeiten",
    "image": "/dam/jcr:d205ff1d-b544-4c88-9455-59d21eee4d75/rtg_standort_aral_170x170.png",
    "location": {
      "lat": 50.0621181,
      "lng": 8.252404499999999
    }
  },
  {
    "zipCode": "75172",
    "city": "Pforzheim",
    "street": "Kaiser-Friedrich-Straße 3",
    "name": "REWE To Go bei Aral",
    "phone": "Tel.: 07231-927913",
    "openingsHours": [
      {
        "weekDays": "Mo Di Mi Do Fr Sa So",
        "from": 0,
        "to": 24
      }
    ],
    "additional": "Unsere Öffnungszeiten",
    "image": "/dam/jcr:d205ff1d-b544-4c88-9455-59d21eee4d75/rtg_standort_aral_170x170.png",
    "location": {
      "lat": 48.8891616,
      "lng": 8.6926297
    }
  },
  {
    "zipCode": "44625",
    "city": "Herne",
    "street": "Holsterhauser Straße 301",
    "name": "REWE To Go bei Aral",
    "phone": "Tel.: 02323-54548",
    "openingsHours": [
      {
        "weekDays": "Mo Di Mi Do Fr Sa So",
        "from": 0,
        "to": 24
      }
    ],
    "additional": "Unsere Öffnungszeiten",
    "image": "/dam/jcr:d205ff1d-b544-4c88-9455-59d21eee4d75/rtg_standort_aral_170x170.png",
    "location": {
      "lat": 51.53283159999999,
      "lng": 7.2139486
    }
  },
  {
    "zipCode": "60594",
    "city": "Frankfurt",
    "street": "Siemensstraße 37",
    "name": "REWE To Go bei Aral ",
    "phone": "Tel.: 069-622953",
    "openingsHours": [
      {
        "weekDays": "Mo Di Mi Do Fr Sa So",
        "from": 0,
        "to": 24
      }
    ],
    "additional": "Unsere Öffnungszeiten",
    "image": "/dam/jcr:d205ff1d-b544-4c88-9455-59d21eee4d75/rtg_standort_aral_170x170.png",
    "location": {
      "lat": 50.1022995,
      "lng": 8.6958731
    }
  },
  {
    "zipCode": "40627",
    "city": "Düsseldorf",
    "street": "Gerresheimer Landstr. 67",
    "name": "REWE To Go bei Aral",
    "phone": "Tel.: 0211-201996",
    "openingsHours": [
      {
        "weekDays": "Mo Di Mi Do Fr Sa So",
        "from": 0,
        "to": 24
      }
    ],
    "additional": "Unsere Öffnungszeiten",
    "image": "/dam/jcr:d205ff1d-b544-4c88-9455-59d21eee4d75/rtg_standort_aral_170x170.png",
    "location": {
      "lat": 51.2017035,
      "lng": 6.905114699999999
    }
  },
  {
    "zipCode": "50968",
    "city": "Köln",
    "street": "Am Verteilerkreis Westsei",
    "name": "REWE To Go bei Aral",
    "phone": "Tel.: 0221-381718",
    "openingsHours": [
      {
        "weekDays": "Mo Di Mi Do Fr Sa So",
        "from": 0,
        "to": 24
      }
    ],
    "additional": "Unsere Öffnungszeiten",
    "image": "/dam/jcr:d205ff1d-b544-4c88-9455-59d21eee4d75/rtg_standort_aral_170x170.png",
    "location": {
      "lat": 50.89199499999999,
      "lng": 6.966260999999999
    }
  },
  {
    "zipCode": "70469",
    "city": "Stuttgart",
    "street": "Wiener Straße 39",
    "name": "REWE To Go bei Aral",
    "phone": "Tel.: 0711-1353230",
    "openingsHours": [
      {
        "weekDays": "Mo Di Mi Do Fr Sa So",
        "from": 0,
        "to": 24
      }
    ],
    "additional": "Unsere Öffnungszeiten",
    "image": "/dam/jcr:d205ff1d-b544-4c88-9455-59d21eee4d75/rtg_standort_aral_170x170.png",
    "location": {
      "lat": 48.8132074,
      "lng": 9.1650283
    }
  },
  {
    "zipCode": "65189",
    "city": "Wiesbaden",
    "street": "Berliner Straße 68",
    "name": "REWE To Go bei Aral",
    "phone": "Tel.: 0611-701141",
    "openingsHours": [
      {
        "weekDays": "Mo Di Mi Do Fr Sa So",
        "from": 0,
        "to": 24
      }
    ],
    "additional": "Unsere Öffnungszeiten",
    "image": "/dam/jcr:d205ff1d-b544-4c88-9455-59d21eee4d75/rtg_standort_aral_170x170.png",
    "location": {
      "lat": 50.0663867,
      "lng": 8.2690615
    }
  },
  {
    "zipCode": "63071",
    "city": "Offenbach",
    "street": "Bieberer Straße 157",
    "name": "REWE To Go bei Aral",
    "phone": "Tel.: 069-85703117",
    "openingsHours": [
      {
        "weekDays": "Mo Di Mi Do Fr Sa So",
        "from": 0,
        "to": 24
      }
    ],
    "additional": "Unsere Öffnungszeiten",
    "image": "/dam/jcr:d205ff1d-b544-4c88-9455-59d21eee4d75/rtg_standort_aral_170x170.png",
    "location": {
      "lat": 50.0988471,
      "lng": 8.785444499999999
    }
  },
  {
    "zipCode": "51399",
    "city": "Burscheid",
    "street": "Hoehestraße 51",
    "name": "REWE To Go bei Aral",
    "phone": "Tel.: 02174-789535",
    "openingsHours": [
      {
        "weekDays": "Mo Di Mi Do Fr Sa So",
        "from": 0,
        "to": 24
      }
    ],
    "additional": "Unsere Öffnungszeiten",
    "image": "/dam/jcr:d205ff1d-b544-4c88-9455-59d21eee4d75/rtg_standort_aral_170x170.png",
    "location": {
      "lat": 51.0843219,
      "lng": 7.127461899999999
    }
  },
  {
    "zipCode": "88214",
    "city": "Ravensburg",
    "street": "Jahnstraße 40",
    "name": "REWE To Go bei Aral",
    "phone": "Tel.: 0751-3529743",
    "openingsHours": [
      {
        "weekDays": "Mo Di Mi Do Fr Sa So",
        "from": 0,
        "to": 24
      }
    ],
    "additional": "Unsere Öffnungszeiten",
    "image": "/dam/jcr:d205ff1d-b544-4c88-9455-59d21eee4d75/rtg_standort_aral_170x170.png",
    "location": {
      "lat": 47.7756667,
      "lng": 9.604251
    }
  },
  {
    "zipCode": "67065",
    "city": "Ludwigshafen",
    "street": "Wegelnburgstraße 27",
    "name": "REWE To Go bei Aral",
    "phone": "Tel.: 0621-57240520",
    "openingsHours": [
      {
        "weekDays": "Mo Di Mi Do Fr Sa So",
        "from": 0,
        "to": 24
      }
    ],
    "additional": "Unsere Öffnungszeiten",
    "image": "/dam/jcr:d205ff1d-b544-4c88-9455-59d21eee4d75/rtg_standort_aral_170x170.png",
    "location": {
      "lat": 49.4574367,
      "lng": 8.4318467
    }
  },
  {
    "zipCode": "63263",
    "city": "Neu-Isenburg",
    "street": "Friedhofstraße 11",
    "name": "REWE To Go bei Aral",
    "phone": "Tel.: 06102-39307",
    "openingsHours": [
      {
        "weekDays": "Mo Di Mi Do Fr Sa",
        "from": 5,
        "to": 23
      },
      {
        "weekDays": "So",
        "from": 6,
        "to": 23
      }
    ],
    "additional": "Unsere Öffnungszeiten",
    "image": "/dam/jcr:d205ff1d-b544-4c88-9455-59d21eee4d75/rtg_standort_aral_170x170.png",
    "location": {
      "lat": 50.0480627,
      "lng": 8.6974377
    }
  },
  {
    "zipCode": "68165",
    "city": "Mannheim",
    "street": "Möhlstraße 1",
    "name": "REWE To Go bei Aral",
    "phone": "Tel.: 0621-407238",
    "openingsHours": [
      {
        "weekDays": "Mo Di Mi Do Fr Sa So",
        "from": 0,
        "to": 24
      }
    ],
    "additional": "Unsere Öffnungszeiten",
    "image": "/dam/jcr:d205ff1d-b544-4c88-9455-59d21eee4d75/rtg_standort_aral_170x170.png",
    "location": {
      "lat": 49.4757185,
      "lng": 8.4883961
    }
  },
  {
    "zipCode": "73054",
    "city": "Eislingen",
    "street": "Stuttgarter Straße 119",
    "name": "REWE To Go bei Aral",
    "phone": "Tel.: 07161-990220",
    "openingsHours": [
      {
        "weekDays": "Mo Di Mi Do Fr Sa So",
        "from": 0,
        "to": 24
      }
    ],
    "additional": "Unsere Öffnungszeiten",
    "image": "/dam/jcr:d205ff1d-b544-4c88-9455-59d21eee4d75/rtg_standort_aral_170x170.png",
    "location": {
      "lat": 48.6963576,
      "lng": 9.690328899999999
    }
  },
  {
    "zipCode": "60431",
    "city": "Frankfurt",
    "street": "Eschersh. Landstr. 523",
    "name": "REWE To Go bei Aral",
    "phone": "Tel.: 069-525947",
    "openingsHours": [
      {
        "weekDays": "Mo Di Mi Do Fr",
        "from": 6,
        "to": 22
      },
      {
        "weekDays": "Sa",
        "from": 6,
        "to": 24
      },
      {
        "weekDays": "So",
        "from": 8,
        "to": 24
      }
    ],
    "additional": "Unsere Öffnungszeiten",
    "image": "/dam/jcr:d205ff1d-b544-4c88-9455-59d21eee4d75/rtg_standort_aral_170x170.png",
    "location": {
      "lat": 50.151574,
      "lng": 8.662334
    }
  },
  {
    "zipCode": "79379",
    "city": "Müllheim",
    "street": "Werderstraße 105",
    "name": "REWE To Go bei Aral",
    "phone": "Tel.: 07631-3882",
    "openingsHours": [
      {
        "weekDays": "Mo Di Mi Do Fr Sa So",
        "from": 0,
        "to": 24
      }
    ],
    "additional": "Unsere Öffnungszeiten",
    "image": "/dam/jcr:d205ff1d-b544-4c88-9455-59d21eee4d75/rtg_standort_aral_170x170.png",
    "location": {
      "lat": 47.8088516,
      "lng": 7.6396913
    }
  },
  {
    "zipCode": "45136",
    "city": "Essen",
    "street": "Rellinghauser Straße 302",
    "name": "REWE To Go bei Aral",
    "phone": "Tel.: 0201-250191",
    "openingsHours": [
      {
        "weekDays": "Mo Di Mi Do Fr Sa So",
        "from": 0,
        "to": 24
      }
    ],
    "additional": "Unsere Öffnungszeiten",
    "image": "/dam/jcr:d205ff1d-b544-4c88-9455-59d21eee4d75/rtg_standort_aral_170x170.png",
    "location": {
      "lat": 51.43472430000001,
      "lng": 7.033994099999999
    }
  },
  {
    "zipCode": "77694",
    "city": "Kehl",
    "street": "Strassburger Straße 11a",
    "name": "REWE To Go bei Aral",
    "phone": "Tel.: 07851-958081",
    "openingsHours": [
      {
        "weekDays": "Mo Di Mi Do Fr Sa So",
        "from": 0,
        "to": 24
      }
    ],
    "additional": "Unsere Öffnungszeiten",
    "image": "/dam/jcr:d205ff1d-b544-4c88-9455-59d21eee4d75/rtg_standort_aral_170x170.png",
    "location": {
      "lat": 48.5761809,
      "lng": 7.8193119
    }
  },
  {
    "zipCode": "72072",
    "city": "Tübingen",
    "street": "Reutlinger Straße 72",
    "name": "REWE To Go bei Aral",
    "phone": "Tel.: 07071-31941",
    "openingsHours": [
      {
        "weekDays": "Mo Di Mi Do Fr Sa So",
        "from": 0,
        "to": 24
      }
    ],
    "additional": "Unsere Öffnungszeiten",
    "image": "/dam/jcr:d205ff1d-b544-4c88-9455-59d21eee4d75/rtg_standort_aral_170x170.png",
    "location": {
      "lat": 48.5129385,
      "lng": 9.0732348
    }
  },
  {
    "zipCode": "66740",
    "city": "Saarlouis",
    "street": "Bahnhofstraße20",
    "name": "REWE To Go bei Aral",
    "phone": "Tel.: 06831-81203",
    "openingsHours": [
      {
        "weekDays": "Mo Di Mi Do Fr Sa So",
        "from": 0,
        "to": 24
      }
    ],
    "additional": "Unsere Öffnungszeiten",
    "image": "/dam/jcr:d205ff1d-b544-4c88-9455-59d21eee4d75/rtg_standort_aral_170x170.png",
    "location": {
      "lat": 49.3252639,
      "lng": 6.758918299999999
    }
  },
  {
    "zipCode": "45894",
    "city": "Gelsenkirchen",
    "street": "Vom-Stein-Straße 40",
    "name": "REWE To Go bei Aral",
    "phone": "Tel.: 0209-32900",
    "openingsHours": [
      {
        "weekDays": "Mo Di Mi Do Fr Sa So",
        "from": 0,
        "to": 24
      }
    ],
    "additional": "Unsere Öffnungszeiten",
    "image": "/dam/jcr:d205ff1d-b544-4c88-9455-59d21eee4d75/rtg_standort_aral_170x170.png",
    "location": {
      "lat": 51.57409,
      "lng": 7.0593861
    }
  },
  {
    "zipCode": "40629",
    "city": "Düsseldorf",
    "street": "Bergische Landstraße 605",
    "name": "REWE To Go bei Aral",
    "phone": "Tel.: 0211-2913810",
    "openingsHours": [
      {
        "weekDays": "Mo Di Mi Do Fr Sa So",
        "from": 0,
        "to": 24
      }
    ],
    "additional": "Unsere Öffnungszeiten",
    "image": "/dam/jcr:d205ff1d-b544-4c88-9455-59d21eee4d75/rtg_standort_aral_170x170.png",
    "location": {
      "lat": 51.26056269999999,
      "lng": 6.908868399999999
    }
  },
  {
    "zipCode": "48143",
    "city": "Münster",
    "street": "Ludgeristraße 7- 8",
    "name": "REWE To Go",
    "phone": "Tel.: 0251-98163010",
    "openingsHours": [
      {
        "weekDays": "Mo Di Mi Do Fr Sa",
        "from": 7,
        "to": 22
      }
    ],
    "additional": "Unsere Öffnungszeiten",
    "image": "/dam/jcr:60c41685-b95a-4d84-9773-1818011a81be/RTG-Default-170x170.png",
    "location": {
      "lat": 51.9603841,
      "lng": 7.6281314
    }
  },
  {
    "zipCode": "58239",
    "city": "Schwerte",
    "street": "Hörder Straße 89",
    "name": "REWE To Go bei Aral",
    "phone": "02304-12930",
    "openingsHours": [
      {
        "weekDays": "Mo Di Mi Do Fr Sa So",
        "from": 0,
        "to": 24
      }
    ],
    "additional": "Unsere Öffnungszeiten",
    "image": "/dam/jcr:d205ff1d-b544-4c88-9455-59d21eee4d75/rtg_standort_aral_170x170.png",
    "location": {
      "lat": 51.4529787,
      "lng": 7.5608742
    }
  },
  {
    "zipCode": "73525",
    "city": "Schwäbisch Gmünd",
    "street": "Remsstraße 10",
    "name": "REWE To Go bei Aral",
    "phone": "07171-36288",
    "openingsHours": [
      {
        "weekDays": "Mo Di Mi Do Fr Sa So",
        "from": 0,
        "to": 24
      }
    ],
    "additional": "Unsere Öffnungszeiten",
    "image": "/dam/jcr:d205ff1d-b544-4c88-9455-59d21eee4d75/rtg_standort_aral_170x170.png",
    "location": {
      "lat": 48.8027504,
      "lng": 9.7978101
    }
  },
  {
    "zipCode": "81379",
    "city": "München",
    "street": "Boschetsrieder Straße 127",
    "name": "REWE To Go bei Aral",
    "phone": "089-786153",
    "openingsHours": [
      {
        "weekDays": "Mo Di Mi Do Fr Sa So",
        "from": 0,
        "to": 24
      }
    ],
    "additional": "Unsere Öffnungszeiten",
    "image": "/dam/jcr:d205ff1d-b544-4c88-9455-59d21eee4d75/rtg_standort_aral_170x170.png",
    "location": {
      "lat": 48.098571,
      "lng": 11.5186718
    }
  },
  {
    "zipCode": "21035",
    "city": "Hamburg",
    "street": "Nettelnburger Landweg 2",
    "name": "REWE To Go bei Aral",
    "phone": "040-73596311",
    "openingsHours": [
      {
        "weekDays": "Mo Di Mi Fr Sa So",
        "from": 0,
        "to": 24
      }
    ],
    "additional": "Unsere Öffnungszeiten",
    "image": "/dam/jcr:d205ff1d-b544-4c88-9455-59d21eee4d75/rtg_standort_aral_170x170.png",
    "location": {
      "lat": 53.48660330000001,
      "lng": 10.1839423
    }
  },
  {
    "zipCode": "68307",
    "city": "Mannheim",
    "street": "Frankenthaler Straße 86",
    "name": "REWE To Go bei Aral",
    "phone": "0621-771755",
    "openingsHours": [
      {
        "weekDays": "Mo Di Mi Do Fr Sa So",
        "from": 0,
        "to": 24
      }
    ],
    "additional": "Unsere Öffnungszeiten",
    "image": "/dam/jcr:d205ff1d-b544-4c88-9455-59d21eee4d75/rtg_standort_aral_170x170.png",
    "location": {
      "lat": 49.550373,
      "lng": 8.4493691
    }
  },
  {
    "zipCode": "81539",
    "city": "München",
    "street": "Tegernseer Landstraße 174",
    "name": "REWE To Go bei Aral",
    "phone": "089-6202810",
    "openingsHours": [
      {
        "weekDays": "Mo Di Mi Do Fr Sa So",
        "from": 0,
        "to": 24
      }
    ],
    "additional": "Unsere Öffnungszeiten",
    "image": "/dam/jcr:d205ff1d-b544-4c88-9455-59d21eee4d75/rtg_standort_aral_170x170.png",
    "location": {
      "lat": 48.107788,
      "lng": 11.5792768
    }
  },
  {
    "zipCode": "80469",
    "city": "München",
    "street": "Kapuzinerstraße 46",
    "name": "REWE To Go bei Aral",
    "phone": "089-761224",
    "openingsHours": [
      {
        "weekDays": "Mo Di Mi Do Fr Sa So",
        "from": 0,
        "to": 24
      }
    ],
    "additional": "Unsere Öffnungszeiten",
    "image": "/dam/jcr:d205ff1d-b544-4c88-9455-59d21eee4d75/rtg_standort_aral_170x170.png",
    "location": {
      "lat": 48.1237894,
      "lng": 11.5650567
    }
  },
  {
    "zipCode": "22081",
    "city": "Hamburg",
    "street": "Dehnhaide 49",
    "name": "REWE To Go bei Aral",
    "phone": "040-295490",
    "openingsHours": [
      {
        "weekDays": "Mo Di Mi Do Fr Sa So",
        "from": 0,
        "to": 24
      }
    ],
    "additional": "Unsere Öffnungszeiten",
    "image": "/dam/jcr:d205ff1d-b544-4c88-9455-59d21eee4d75/rtg_standort_aral_170x170.png",
    "location": {
      "lat": 53.5792167,
      "lng": 10.045418
    }
  },
  {
    "zipCode": "28259",
    "city": "Bremen",
    "street": "Huchtinger Heerstraße 4",
    "name": "REWE To Go bei Aral",
    "phone": "0421-581445",
    "openingsHours": [
      {
        "weekDays": "Mo Di Mi Do Fr Sa So",
        "from": 0,
        "to": 24
      }
    ],
    "additional": "Unsere Öffnungszeiten",
    "image": "/dam/jcr:d205ff1d-b544-4c88-9455-59d21eee4d75/rtg_standort_aral_170x170.png",
    "location": {
      "lat": 53.05381029999999,
      "lng": 8.741292399999999
    }
  },
  {
    "zipCode": "83607",
    "city": "Holzkirchen",
    "street": "Miesbacher Straße 33",
    "name": "REWE To Go bei Aral",
    "phone": "08024-998184",
    "openingsHours": [
      {
        "weekDays": "Mo Di Mi Do Fr Sa So",
        "from": 0,
        "to": 24
      }
    ],
    "additional": "Unsere Öffnungszeiten",
    "image": "/dam/jcr:d205ff1d-b544-4c88-9455-59d21eee4d75/rtg_standort_aral_170x170.png",
    "location": {
      "lat": 47.8757083,
      "lng": 11.7105075
    }
  },
  {
    "zipCode": "10627",
    "city": "Berlin",
    "street": "Wilmersdorfer Straße 58",
    "name": "REWE To Go",
    "phone": "030-89549452",
    "openingsHours": [
      {
        "weekDays": "Mo Di Mi Do Fr Sa",
        "from": 8,
        "to": 24
      },
      {
        "weekDays": "So",
        "from": 8,
        "to": 22
      }
    ],
    "additional": "Unsere Öffnungszeiten",
    "image": "/dam/jcr:60c41685-b95a-4d84-9773-1818011a81be/RTG-Default-170x170.png",
    "location": {
      "lat": 52.5075072,
      "lng": 13.3060964
    }
  },
  {
    "zipCode": "20537",
    "city": "Hamburg",
    "street": "Eiffestraße 506",
    "name": "REWE To Go bei Aral",
    "phone": "040-213820",
    "openingsHours": [
      {
        "weekDays": "Mo Di Mi Do Fr Sa So",
        "from": 0,
        "to": 24
      }
    ],
    "additional": "Unsere Öffnungszeiten",
    "image": "/dam/jcr:d205ff1d-b544-4c88-9455-59d21eee4d75/rtg_standort_aral_170x170.png",
    "location": {
      "lat": 53.55147059999999,
      "lng": 10.0517875
    }
  },
  {
    "zipCode": "30521",
    "city": "Hannover",
    "street": "Messeschnellweg-West",
    "name": "REWE To Go bei Aral",
    "phone": "0511-871830",
    "openingsHours": [
      {
        "weekDays": "Mo Di Mi Do Fr Sa So",
        "from": 0,
        "to": 24
      }
    ],
    "additional": "Unsere Öffnungszeiten",
    "image": "/dam/jcr:d205ff1d-b544-4c88-9455-59d21eee4d75/rtg_standort_aral_170x170.png",
    "location": {
      "lat": 52.3257087,
      "lng": 9.812983
    }
  },
  {
    "zipCode": "64646",
    "city": "Heppenheim",
    "street": "Lorscher Straße 53",
    "name": "REWE To Go bei Aral",
    "phone": "06252-7969160",
    "openingsHours": [
      {
        "weekDays": "Mo Di Mi Do Fr Sa So",
        "from": 0,
        "to": 24
      }
    ],
    "additional": "Unsere Öffnungszeiten",
    "image": "/dam/jcr:d205ff1d-b544-4c88-9455-59d21eee4d75/rtg_standort_aral_170x170.png",
    "location": {
      "lat": 49.64404810000001,
      "lng": 8.6242507
    }
  },
  {
    "zipCode": "68169",
    "city": "Mannheim",
    "street": "Untermühlaustraße 50",
    "name": "REWE To Go bei Aral",
    "phone": "0621-313971",
    "openingsHours": [
      {
        "weekDays": "Mo Di Mi Do Fr Sa So",
        "from": 0,
        "to": 24
      }
    ],
    "additional": "Unsere Öffnungszeiten",
    "image": "/dam/jcr:d205ff1d-b544-4c88-9455-59d21eee4d75/rtg_standort_aral_170x170.png",
    "location": {
      "lat": 49.5060311,
      "lng": 8.4642079
    }
  },
  {
    "zipCode": "72458",
    "city": "Albstadt",
    "street": "Berliner Straße 55",
    "name": "REWE To Go bei Aral",
    "phone": "07431-2697",
    "openingsHours": [
      {
        "weekDays": "Mo Di Mi Do Fr Sa So",
        "from": 0,
        "to": 24
      }
    ],
    "additional": "Unsere Öffnungszeiten",
    "image": "/dam/jcr:d205ff1d-b544-4c88-9455-59d21eee4d75/rtg_standort_aral_170x170.png",
    "location": {
      "lat": 48.2061189,
      "lng": 9.0368474
    }
  },
  {
    "zipCode": "10559",
    "city": "Berlin",
    "street": "Rathenower Straße 8",
    "name": "REWE To Go bei Aral",
    "phone": "030-3944041",
    "openingsHours": [
      {
        "weekDays": "Mo Di Mi Do Fr Sa So",
        "from": 0,
        "to": 24
      }
    ],
    "additional": "Unsere Öffnungszeiten",
    "image": "/dam/jcr:d205ff1d-b544-4c88-9455-59d21eee4d75/rtg_standort_aral_170x170.png",
    "location": {
      "lat": 52.5253476,
      "lng": 13.3567872
    }
  },
  {
    "zipCode": "76131",
    "city": "Karlsruhe",
    "street": "Haid-und-Neu-Straße 60",
    "name": "REWE To Go bei Aral",
    "phone": "0721-615570",
    "openingsHours": [
      {
        "weekDays": "Mo Di Mi Do Fr Sa So",
        "from": 0,
        "to": 24
      }
    ],
    "additional": "Unsere Öffnungszeiten",
    "image": "/dam/jcr:d205ff1d-b544-4c88-9455-59d21eee4d75/rtg_standort_aral_170x170.png",
    "location": {
      "lat": 49.01511050000001,
      "lng": 8.4352585
    }
  },
  {
    "zipCode": "10711",
    "city": "Berlin",
    "street": "Kurfuerstendamm 128",
    "name": "REWE To Go bei Aral",
    "phone": "030-89096972",
    "openingsHours": [
      {
        "weekDays": "Mo Di Mi Do Fr Sa So",
        "from": 0,
        "to": 24
      }
    ],
    "additional": "Unsere Öffnungszeiten",
    "image": "/dam/jcr:d205ff1d-b544-4c88-9455-59d21eee4d75/rtg_standort_aral_170x170.png",
    "location": {
      "lat": 52.4957573,
      "lng": 13.2874967
    }
  },
  {
    "zipCode": "22305",
    "city": "Hamburg",
    "street": "Habichtstraße 72-78",
    "name": "REWE To Go bei Aral",
    "phone": "040-611041",
    "openingsHours": [
      {
        "weekDays": "Mo Di Mi Do Fr Sa So",
        "from": 0,
        "to": 24
      }
    ],
    "additional": "Unsere Öffnungszeiten",
    "image": "/dam/jcr:d205ff1d-b544-4c88-9455-59d21eee4d75/rtg_standort_aral_170x170.png",
    "location": {
      "lat": 53.5925053,
      "lng": 10.0548548
    }
  },
  {
    "zipCode": "40549",
    "city": "Düsseldorf",
    "street": "Pariser Straße 82",
    "name": "REWE To Go bei Aral",
    "phone": "0211-501372",
    "openingsHours": [
      {
        "weekDays": "Mo Di Mi Do Fr Sa So",
        "from": 0,
        "to": 24
      }
    ],
    "additional": "Unsere Öffnungszeiten",
    "image": "/dam/jcr:d205ff1d-b544-4c88-9455-59d21eee4d75/rtg_standort_aral_170x170.png",
    "location": {
      "lat": 51.2333284,
      "lng": 6.727787600000001
    }
  },
  {
    "zipCode": "29227",
    "city": "Celle",
    "street": "Hann. Heerstraße 44",
    "name": "REWE To Go bei Aral",
    "phone": "05141-24511",
    "openingsHours": [
      {
        "weekDays": "Mo Di Mi Do Fr Sa So",
        "from": 0,
        "to": 24
      }
    ],
    "additional": "Unsere Öffnungszeiten",
    "image": "/dam/jcr:d205ff1d-b544-4c88-9455-59d21eee4d75/rtg_standort_aral_170x170.png"
  },
  {
    "zipCode": "21502",
    "city": "Geesthacht",
    "street": "Geesthachter Straße 24-28",
    "name": "REWE To Go bei Aral",
    "phone": "04152-2591",
    "openingsHours": [
      {
        "weekDays": "Mo Di Mi Do Fr Sa So",
        "from": 0,
        "to": 24
      }
    ],
    "additional": "Unsere Öffnungszeiten",
    "image": "/dam/jcr:d205ff1d-b544-4c88-9455-59d21eee4d75/rtg_standort_aral_170x170.png",
    "location": {
      "lat": 53.4400641,
      "lng": 10.366018
    }
  },
  {
    "zipCode": "76530",
    "city": "Baden-Baden",
    "street": "Lange Straße 122",
    "name": "REWE To Go bei Aral",
    "phone": "07221-25331",
    "openingsHours": [
      {
        "weekDays": "Mo Di Mi Do Fr Sa So",
        "from": 0,
        "to": 24
      }
    ],
    "additional": "Unsere Öffnungszeiten",
    "image": "/dam/jcr:d205ff1d-b544-4c88-9455-59d21eee4d75/rtg_standort_aral_170x170.png",
    "location": {
      "lat": 48.77076479999999,
      "lng": 8.228350899999999
    }
  },
  {
    "zipCode": "22149",
    "city": "Hamburg",
    "street": "Rahlstedter Straße 87",
    "name": "REWE To Go bei Aral",
    "phone": "040-67561379",
    "openingsHours": [
      {
        "weekDays": "Mo Di Mi Do Fr Sa So",
        "from": 0,
        "to": 24
      }
    ],
    "additional": "Unsere Öffnungszeiten",
    "image": "/dam/jcr:d205ff1d-b544-4c88-9455-59d21eee4d75/rtg_standort_aral_170x170.png",
    "location": {
      "lat": 53.5975292,
      "lng": 10.1527571
    }
  },
  {
    "zipCode": "12103",
    "city": "Berlin",
    "street": "Schöneberger Str. / Alboi",
    "name": "REWE To Go bei Aral",
    "phone": "030-75446987",
    "openingsHours": [
      {
        "weekDays": "Mo Di Mi Do Fr Sa So",
        "from": 0,
        "to": 24
      }
    ],
    "additional": "Unsere Öffnungszeiten",
    "image": "/dam/jcr:d205ff1d-b544-4c88-9455-59d21eee4d75/rtg_standort_aral_170x170.png",
    "location": {
      "lat": 52.4697998,
      "lng": 13.372911
    }
  },
  {
    "zipCode": "66333",
    "city": "Völklingen",
    "street": "Karolinger Straße 5",
    "name": "REWE To Go bei Aral",
    "phone": "06898-23327",
    "openingsHours": [
      {
        "weekDays": "Mo Di Mi Do Fr Sa So",
        "from": 0,
        "to": 24
      }
    ],
    "additional": "Unsere Öffnungszeiten",
    "image": "/dam/jcr:d205ff1d-b544-4c88-9455-59d21eee4d75/rtg_standort_aral_170x170.png",
    "location": {
      "lat": 49.2474898,
      "lng": 6.859081
    }
  },
  {
    "zipCode": "66740",
    "city": "Saarlouis",
    "street": "Metzer Straße 50",
    "name": "REWE To Go bei Aral",
    "phone": "06831-40414",
    "openingsHours": [
      {
        "weekDays": "Mo Di Mi Do Fr Sa So",
        "from": 0,
        "to": 24
      }
    ],
    "additional": "Unsere Öffnungszeiten",
    "image": "/dam/jcr:d205ff1d-b544-4c88-9455-59d21eee4d75/rtg_standort_aral_170x170.png",
    "location": {
      "lat": 49.3054482,
      "lng": 6.739955399999999
    }
  },
  {
    "zipCode": "10553",
    "city": "Berlin",
    "street": "Beusselstraße 55",
    "name": "REWE To Go bei Aral",
    "phone": "030-3914404",
    "openingsHours": [
      {
        "weekDays": "Mo Di Mi Do Fr Sa So",
        "from": 0,
        "to": 24
      }
    ],
    "additional": "Unsere Öffnungszeiten",
    "image": "/dam/jcr:d205ff1d-b544-4c88-9455-59d21eee4d75/rtg_standort_aral_170x170.png",
    "location": {
      "lat": 52.53088839999999,
      "lng": 13.3283782
    }
  },
  {
    "zipCode": "88630",
    "city": "Pfullendorf",
    "street": "Überlinger Straße 58",
    "name": "REWE To Go bei Aral",
    "phone": "07552-8625",
    "openingsHours": [
      {
        "weekDays": "Mo Di Mi Do Fr Sa So",
        "from": 0,
        "to": 24
      }
    ],
    "additional": "Unsere Öffnungszeiten",
    "image": "/dam/jcr:d205ff1d-b544-4c88-9455-59d21eee4d75/rtg_standort_aral_170x170.png",
    "location": {
      "lat": 47.9277563,
      "lng": 9.2432067
    }
  },
  {
    "zipCode": "77694",
    "city": "Kehl",
    "street": "Straßburger Straße 34a",
    "name": "REWE To Go bei Aral",
    "phone": "07851-958877",
    "openingsHours": [
      {
        "weekDays": "Mo Di Mi Do Fr Sa So",
        "from": 0,
        "to": 24
      }
    ],
    "additional": "Unsere Öffnungszeiten",
    "image": "/dam/jcr:d205ff1d-b544-4c88-9455-59d21eee4d75/rtg_standort_aral_170x170.png",
    "location": {
      "lat": 48.5755444,
      "lng": 7.817241799999999
    }
  },
  {
    "zipCode": "89231",
    "city": "Neu-Ulm",
    "street": "Otto-Renner-Straße 1",
    "name": "REWE To Go bei Aral",
    "phone": "0731-7253429",
    "openingsHours": [
      {
        "weekDays": "Mo Di Mi Do Fr Sa So",
        "from": 0,
        "to": 24
      }
    ],
    "additional": "Unsere Öffnungszeiten",
    "image": "/dam/jcr:d205ff1d-b544-4c88-9455-59d21eee4d75/rtg_standort_aral_170x170.png",
    "location": {
      "lat": 48.3863264,
      "lng": 10.0354596
    }
  },
  {
    "zipCode": "10999",
    "city": "Berlin",
    "street": "Skalitzer Straße 26",
    "name": "REWE To Go bei Aral",
    "phone": "030-61702190",
    "openingsHours": [
      {
        "weekDays": "Mo Di Mi Do Fr Sa So",
        "from": 0,
        "to": 24
      }
    ],
    "additional": "Unsere Öffnungszeiten",
    "image": "/dam/jcr:d205ff1d-b544-4c88-9455-59d21eee4d75/rtg_standort_aral_170x170.png",
    "location": {
      "lat": 52.4988782,
      "lng": 13.4228668
    }
  },
  {
    "zipCode": "80804",
    "city": "München",
    "street": "Leopoldstraße 208",
    "name": "REWE To Go bei Aral",
    "phone": "089-363171",
    "openingsHours": [
      {
        "weekDays": "Mo Di Mi Do Fr Sa So",
        "from": 0,
        "to": 24
      }
    ],
    "additional": "Unsere Öffnungszeiten",
    "image": "/dam/jcr:d205ff1d-b544-4c88-9455-59d21eee4d75/rtg_standort_aral_170x170.png",
    "location": {
      "lat": 48.1755651,
      "lng": 11.5861651
    }
  },
  {
    "zipCode": "29223",
    "city": "Celle",
    "street": "Harburger Straße 74",
    "name": "REWE To Go bei Aral",
    "phone": "05141-930909",
    "openingsHours": [
      {
        "weekDays": "Mo Di Mi Do Fr Sa So",
        "from": 0,
        "to": 24
      }
    ],
    "additional": "Unsere Öffnungszeiten",
    "image": "/dam/jcr:d205ff1d-b544-4c88-9455-59d21eee4d75/rtg_standort_aral_170x170.png",
    "location": {
      "lat": 52.6343144,
      "lng": 10.0810229
    }
  },
  {
    "zipCode": "89079",
    "city": "Ulm",
    "street": "Raiffeisenstraße 1",
    "name": "REWE To Go bei Aral",
    "phone": "0731-44488",
    "openingsHours": [
      {
        "weekDays": "Mo Di Mi Do Fr Sa So",
        "from": 0,
        "to": 24
      }
    ],
    "additional": "Unsere Öffnungszeiten",
    "image": "/dam/jcr:d205ff1d-b544-4c88-9455-59d21eee4d75/rtg_standort_aral_170x170.png",
    "location": {
      "lat": 48.35829040000001,
      "lng": 9.9701668
    }
  },
  {
    "zipCode": "14055",
    "city": "Berlin",
    "street": "Heerstraße 136",
    "name": "REWE To Go bei Aral",
    "phone": "030-30810202",
    "openingsHours": [
      {
        "weekDays": "Mo Di Mi Do Fr Sa So",
        "from": 0,
        "to": 24
      }
    ],
    "additional": "Unsere Öffnungszeiten",
    "image": "/dam/jcr:d205ff1d-b544-4c88-9455-59d21eee4d75/rtg_standort_aral_170x170.png",
    "location": {
      "lat": 52.5072898,
      "lng": 13.2276539
    }
  },
  {
    "zipCode": "20535",
    "city": "Hamburg",
    "street": "Sievekingsallee/Saling 30",
    "name": "REWE To Go bei Aral",
    "phone": "040-2502222",
    "openingsHours": [
      {
        "weekDays": "Mo Di Mi Do Fr Sa So",
        "from": 0,
        "to": 24
      }
    ],
    "additional": "Unsere Öffnungszeiten",
    "image": "/dam/jcr:d205ff1d-b544-4c88-9455-59d21eee4d75/rtg_standort_aral_170x170.png",
    "location": {
      "lat": 53.56157520000001,
      "lng": 10.0481434
    }
  },
  {
    "zipCode": "53879",
    "city": "Euskirchen",
    "street": "Frauenberger Straße 168",
    "name": "REWE To Go bei Aral",
    "phone": "02251-782560",
    "openingsHours": [
      {
        "weekDays": "Mo Di Mi Do Fr Sa So",
        "from": 5,
        "to": 22
      }
    ],
    "additional": "Unsere Öffnungszeiten",
    "image": "/dam/jcr:d205ff1d-b544-4c88-9455-59d21eee4d75/rtg_standort_aral_170x170.png",
    "location": {
      "lat": 50.67024,
      "lng": 6.7724794
    }
  },
  {
    "zipCode": "22761",
    "city": "Hamburg",
    "street": "Stresemannstraße 329",
    "name": "REWE To Go bei Aral",
    "phone": "040-857265",
    "openingsHours": [
      {
        "weekDays": "Mo Di Mi Do Fr Sa So",
        "from": 0,
        "to": 24
      }
    ],
    "additional": "Unsere Öffnungszeiten",
    "image": "/dam/jcr:d205ff1d-b544-4c88-9455-59d21eee4d75/rtg_standort_aral_170x170.png",
    "location": {
      "lat": 53.56412,
      "lng": 9.92562
    }
  },
  {
    "zipCode": "38440",
    "city": "Wolfsburg",
    "street": "Heinr.-Nordhoff-Str. 117",
    "name": "REWE To Go bei Aral",
    "phone": "05361-13248",
    "openingsHours": [
      {
        "weekDays": "Mo Di Mi Do Fr Sa So",
        "from": 0,
        "to": 24
      }
    ],
    "additional": "Unsere Öffnungszeiten",
    "image": "/dam/jcr:d205ff1d-b544-4c88-9455-59d21eee4d75/rtg_standort_aral_170x170.png",
    "location": {
      "lat": 52.4270136,
      "lng": 10.7714541
    }
  },
  {
    "zipCode": "34121",
    "city": "Kassel",
    "street": "Frankfurter Straße 90",
    "name": "REWE To Go bei Aral",
    "phone": "0561-23104",
    "openingsHours": [
      {
        "weekDays": "Mo Di Mi Do Fr Sa So",
        "from": 0,
        "to": 24
      }
    ],
    "additional": "Unsere Öffnungszeiten",
    "image": "/dam/jcr:d205ff1d-b544-4c88-9455-59d21eee4d75/rtg_standort_aral_170x170.png",
    "location": {
      "lat": 51.3034292,
      "lng": 9.4833546
    }
  },
  {
    "zipCode": "64832",
    "city": "Babenhausen",
    "street": "Aschaffenburger Straße 3",
    "name": "REWE To Go bei Aral",
    "phone": "06073-62912",
    "openingsHours": [
      {
        "weekDays": "Mo Di Mi Do Fr Sa",
        "from": 6,
        "to": 22
      },
      {
        "weekDays": "So",
        "from": 7,
        "to": 22
      }
    ],
    "additional": "Unsere Öffnungszeiten",
    "image": "/dam/jcr:d205ff1d-b544-4c88-9455-59d21eee4d75/rtg_standort_aral_170x170.png",
    "location": {
      "lat": 49.9573507,
      "lng": 8.958113299999999
    }
  },
  {
    "zipCode": "55411",
    "city": "Bingen",
    "street": "Hitchinstraße 44",
    "name": "REWE To Go bei Aral",
    "phone": "06721-44743",
    "openingsHours": [
      {
        "weekDays": "Mo Di Mi Do Fr Sa So",
        "from": 0,
        "to": 24
      }
    ],
    "additional": "Unsere Öffnungszeiten",
    "image": "/dam/jcr:d205ff1d-b544-4c88-9455-59d21eee4d75/rtg_standort_aral_170x170.png",
    "location": {
      "lat": 49.9483463,
      "lng": 7.903237300000001
    }
  },
  {
    "zipCode": "90763",
    "city": "Fürth",
    "street": "Herrnstraße 27",
    "name": "REWE To Go bei Aral",
    "phone": "0911-775990",
    "openingsHours": [
      {
        "weekDays": "Mo Di Mi Do Fr Sa So",
        "from": 0,
        "to": 24
      }
    ],
    "additional": "Unsere Öffnungszeiten",
    "image": "/dam/jcr:d205ff1d-b544-4c88-9455-59d21eee4d75/rtg_standort_aral_170x170.png",
    "location": {
      "lat": 49.4641972,
      "lng": 10.987931
    }
  },
  {
    "zipCode": "28205",
    "city": "Bremen",
    "street": "Bismarckstraße 355",
    "name": "REWE To Go bei Aral",
    "phone": "0421-447691",
    "openingsHours": [
      {
        "weekDays": "Mo Di Mi Do Fr Sa So",
        "from": 0,
        "to": 24
      }
    ],
    "additional": "Unsere Öffnungszeiten",
    "image": "/dam/jcr:d205ff1d-b544-4c88-9455-59d21eee4d75/rtg_standort_aral_170x170.png",
    "location": {
      "lat": 53.0736196,
      "lng": 8.851671
    }
  },
  {
    "zipCode": "13353",
    "city": "Berlin",
    "street": "Seestraße 18/19",
    "name": "REWE To Go bei Aral",
    "phone": "030-4536026",
    "openingsHours": [
      {
        "weekDays": "Mo Di Mi Do Fr Sa So",
        "from": 0,
        "to": 24
      }
    ],
    "additional": "Unsere Öffnungszeiten",
    "image": "/dam/jcr:d205ff1d-b544-4c88-9455-59d21eee4d75/rtg_standort_aral_170x170.png",
    "location": {
      "lat": 52.5465883,
      "lng": 13.3452777
    }
  },
  {
    "zipCode": "60528",
    "city": "Frankfurt",
    "street": "Forsthausstraße 50",
    "name": "REWE To Go bei Aral",
    "phone": "069-671026",
    "openingsHours": [
      {
        "weekDays": "Mo Di Mi Do Fr Sa So",
        "from": 0,
        "to": 24
      }
    ],
    "additional": "Unsere Öffnungszeiten",
    "image": "/dam/jcr:d205ff1d-b544-4c88-9455-59d21eee4d75/rtg_standort_aral_170x170.png",
    "location": {
      "lat": 50.079728,
      "lng": 8.655009999999999
    }
  },
  {
    "zipCode": "85221",
    "city": "Dachau",
    "street": "Alte Römerstraße 50",
    "name": "REWE To Go bei Aral",
    "phone": "08131-333352",
    "openingsHours": [
      {
        "weekDays": "Mo Di Mi Do Fr Sa So",
        "from": 0,
        "to": 24
      }
    ],
    "additional": "Unsere Öffnungszeiten",
    "image": "/dam/jcr:d205ff1d-b544-4c88-9455-59d21eee4d75/rtg_standort_aral_170x170.png",
    "location": {
      "lat": 48.2599618,
      "lng": 11.4698942
    }
  },
  {
    "zipCode": "23554",
    "city": "Lübeck",
    "street": "Fackenburger Allee 20",
    "name": "REWE To Go bei Aral",
    "phone": "0451-42183",
    "openingsHours": [
      {
        "weekDays": "Mo Di Mi Do Fr Sa So",
        "from": 0,
        "to": 24
      }
    ],
    "additional": "Unsere Öffnungszeiten",
    "image": "/dam/jcr:d205ff1d-b544-4c88-9455-59d21eee4d75/rtg_standort_aral_170x170.png",
    "location": {
      "lat": 53.8707436,
      "lng": 10.6693319
    }
  },
  {
    "zipCode": "48143",
    "city": "Münster",
    "street": "Berliner Platz 21-23 (HBF)",
    "name": "REWE To Go ",
    "phone": "0251–49094273",
    "openingsHours": [
      {
        "weekDays": "Mo Di Mi Do Fr Sa So",
        "from": 5,
        "to": 24
      }
    ],
    "additional": "Unsere Öffnungszeiten",
    "image": "/dam/jcr:60c41685-b95a-4d84-9773-1818011a81be/RTG-Default-170x170.png",
    "location": {
      "lat": 51.9562874,
      "lng": 7.634105699999999
    }
  },
  {
    "zipCode": "22767",
    "city": "Hamburg",
    "street": "Königstraße 9",
    "name": "REWE To Go bei Aral",
    "phone": "040-313481",
    "openingsHours": [
      {
        "weekDays": "Mo Di Mi Do Fr Sa So",
        "from": 0,
        "to": 24
      }
    ],
    "additional": "Unsere Öffnungszeiten",
    "image": "/dam/jcr:d205ff1d-b544-4c88-9455-59d21eee4d75/rtg_standort_aral_170x170.png",
    "location": {
      "lat": 53.549366,
      "lng": 9.9526303
    }
  },
  {
    "zipCode": "10969",
    "city": "Berlin",
    "street": "Prinzenstraße 29",
    "name": "REWE To Go bei Aral",
    "phone": "030-6149860",
    "openingsHours": [
      {
        "weekDays": "Mo Di Mi Do Fr Sa So",
        "from": 0,
        "to": 24
      }
    ],
    "additional": "Unsere Öffnungszeiten",
    "image": "/dam/jcr:d205ff1d-b544-4c88-9455-59d21eee4d75/rtg_standort_aral_170x170.png",
    "location": {
      "lat": 52.5019923,
      "lng": 13.4097126
    }
  },
  {
    "zipCode": "10555",
    "city": "Berlin",
    "street": "Levetzowstraße 9",
    "name": "REWE To Go bei Aral",
    "phone": "030-3914575",
    "openingsHours": [
      {
        "weekDays": "Mo Di Mi Do Fr Sa So",
        "from": 0,
        "to": 24
      }
    ],
    "additional": "Unsere Öffnungszeiten",
    "image": "/dam/jcr:d205ff1d-b544-4c88-9455-59d21eee4d75/rtg_standort_aral_170x170.png",
    "location": {
      "lat": 52.5208111,
      "lng": 13.3335537
    }
  },
  {
    "zipCode": "91522",
    "city": "Ansbach",
    "street": "Matthias-Öchsler- Str. 2",
    "name": "REWE To Go bei Aral",
    "phone": "0981-9775633",
    "openingsHours": [
      {
        "weekDays": "Mo Di Mi Do Fr Sa So",
        "from": 0,
        "to": 24
      }
    ],
    "additional": "Unsere Öffnungszeiten",
    "image": "/dam/jcr:d205ff1d-b544-4c88-9455-59d21eee4d75/rtg_standort_aral_170x170.png",
    "location": {
      "lat": 49.2990329,
      "lng": 10.5862203
    }
  },
  {
    "zipCode": "65189",
    "city": "Wiesbaden",
    "street": "Bahnhofsplatz",
    "name": "REWE To Go bei Aral",
    "phone": "0611-719188",
    "openingsHours": [
      {
        "weekDays": "Mo Di Mi Do Fr Sa So",
        "from": 0,
        "to": 24
      }
    ],
    "additional": "Unsere Öffnungszeiten",
    "image": "/dam/jcr:d205ff1d-b544-4c88-9455-59d21eee4d75/rtg_standort_aral_170x170.png",
    "location": {
      "lat": 50.0714025,
      "lng": 8.2419121
    }
  },
  {
    "zipCode": "32339",
    "city": "Espelkamp",
    "street": "Isenstedter Straße 139",
    "name": "REWE To Go bei Aral",
    "phone": "05772-936176",
    "openingsHours": [
      {
        "weekDays": "Mo Di Mi Do Fr Sa So",
        "from": 0,
        "to": 24
      }
    ],
    "additional": "Unsere Öffnungszeiten",
    "image": "/dam/jcr:d205ff1d-b544-4c88-9455-59d21eee4d75/rtg_standort_aral_170x170.png",
    "location": {
      "lat": 52.37380779999999,
      "lng": 8.634271800000002
    }
  },
  {
    "zipCode": "61440",
    "city": "Oberursel",
    "street": "Frankfurter Landstr. 200",
    "name": "REWE To Go bei Aral",
    "phone": "06171-73993",
    "openingsHours": [
      {
        "weekDays": "Mo Di Mi Do Fr Sa So",
        "from": 0,
        "to": 24
      }
    ],
    "additional": "Unsere Öffnungszeiten",
    "image": "/dam/jcr:d205ff1d-b544-4c88-9455-59d21eee4d75/rtg_standort_aral_170x170.png",
    "location": {
      "lat": 50.1805318,
      "lng": 8.605240199999999
    }
  },
  {
    "zipCode": "22085",
    "city": "Hamburg",
    "street": "Winterhuder Weg 25",
    "name": "REWE To Go bei Aral",
    "phone": "040-2207516",
    "openingsHours": [
      {
        "weekDays": "Mo Di Mi Do Fr Sa So",
        "from": 0,
        "to": 24
      }
    ],
    "additional": "Unsere Öffnungszeiten",
    "image": "/dam/jcr:d205ff1d-b544-4c88-9455-59d21eee4d75/rtg_standort_aral_170x170.png",
    "location": {
      "lat": 53.57385439999999,
      "lng": 10.0221585
    }
  },
  {
    "zipCode": "10965",
    "city": "Berlin",
    "street": "Dudenstraße 19",
    "name": "REWE To Go bei Aral",
    "phone": "030-78913831",
    "openingsHours": [
      {
        "weekDays": "Mo Di Mi Do Fr Sa So",
        "from": 0,
        "to": 24
      }
    ],
    "additional": "Unsere Öffnungszeiten",
    "image": "/dam/jcr:d205ff1d-b544-4c88-9455-59d21eee4d75/rtg_standort_aral_170x170.png",
    "location": {
      "lat": 52.484835,
      "lng": 13.381792
    }
  },
  {
    "zipCode": "97753",
    "city": "Karlstadt",
    "street": "Würzburger Straße 3-5",
    "name": "REWE To Go bei Aral",
    "phone": "09353-2489",
    "openingsHours": [
      {
        "weekDays": "Mo Di Mi Do Fr Sa So",
        "from": 0,
        "to": 24
      }
    ],
    "additional": "Unsere Öffnungszeiten",
    "image": "/dam/jcr:d205ff1d-b544-4c88-9455-59d21eee4d75/rtg_standort_aral_170x170.png",
    "location": {
      "lat": 49.95576399999999,
      "lng": 9.7728235
    }
  },
  {
    "zipCode": "80686",
    "city": "München",
    "street": "Garmischer Straße 138",
    "name": "REWE To Go bei Aral",
    "phone": "089-57868298",
    "openingsHours": [
      {
        "weekDays": "Mo Di Mi Do Fr Sa So",
        "from": 0,
        "to": 24
      }
    ],
    "additional": "Unsere Öffnungszeiten",
    "image": "/dam/jcr:d205ff1d-b544-4c88-9455-59d21eee4d75/rtg_standort_aral_170x170.png",
    "location": {
      "lat": 48.1268173,
      "lng": 11.5221031
    }
  },
  {
    "zipCode": "27580",
    "city": "Bremerhaven",
    "street": "Stresemannstraße 310",
    "name": "REWE To Go bei Aral",
    "phone": "0471-85150",
    "openingsHours": [
      {
        "weekDays": "Mo Di Mi Do Fr Sa So",
        "from": 0,
        "to": 24
      }
    ],
    "additional": "Unsere Öffnungszeiten",
    "image": "/dam/jcr:d205ff1d-b544-4c88-9455-59d21eee4d75/rtg_standort_aral_170x170.png",
    "location": {
      "lat": 53.5709349,
      "lng": 8.5985266
    }
  },
  {
    "zipCode": "61462",
    "city": "Königstein",
    "street": "Mammolshainer weg",
    "name": "REWE To Go bei Aral",
    "phone": "06174-209242",
    "openingsHours": [
      {
        "weekDays": "Mo Di Mi Do Fr Sa So",
        "from": 6,
        "to": 22
      }
    ],
    "additional": "Unsere Öffnungszeiten",
    "image": "/dam/jcr:d205ff1d-b544-4c88-9455-59d21eee4d75/rtg_standort_aral_170x170.png",
    "location": {
      "lat": 50.1782885,
      "lng": 8.4812849
    }
  },
  {
    "zipCode": "21337",
    "city": "Lüneburg",
    "street": "Dahlenburger Landstraße 34",
    "name": "REWE To Go bei Aral",
    "phone": "04131-51560",
    "openingsHours": [
      {
        "weekDays": "Mo Di Mi Do Fr Sa So",
        "from": 0,
        "to": 24
      }
    ],
    "additional": "Unsere Öffnungszeiten",
    "image": "/dam/jcr:d205ff1d-b544-4c88-9455-59d21eee4d75/rtg_standort_aral_170x170.png",
    "location": {
      "lat": 53.2443298,
      "lng": 10.4451838
    }
  },
  {
    "zipCode": "13187",
    "city": "Berlin",
    "street": "Mühlenstraße 26",
    "name": "REWE To Go bei Aral",
    "phone": "030-47302020",
    "openingsHours": [
      {
        "weekDays": "Mo Di Mi Do Fr Sa So",
        "from": 0,
        "to": 24
      }
    ],
    "additional": "Unsere Öffnungszeiten",
    "image": "/dam/jcr:d205ff1d-b544-4c88-9455-59d21eee4d75/rtg_standort_aral_170x170.png",
    "location": {
      "lat": 52.56374229999999,
      "lng": 13.4079363
    }
  },
  {
    "zipCode": "28329",
    "city": "Bremen",
    "street": "Kurfürstenallee 49",
    "name": "REWE To Go bei Aral",
    "phone": "0421-444244",
    "openingsHours": [
      {
        "weekDays": "Mo Di Mi Do Fr Sa So",
        "from": 0,
        "to": 24
      }
    ],
    "additional": "Unsere Öffnungszeiten",
    "image": "/dam/jcr:d205ff1d-b544-4c88-9455-59d21eee4d75/rtg_standort_aral_170x170.png",
    "location": {
      "lat": 53.0822648,
      "lng": 8.8555234
    }
  },
  {
    "zipCode": "84069",
    "city": "Schierling",
    "street": "Dieselstraße 16",
    "name": "REWE To Go bei Aral",
    "phone": "09451-9489202",
    "openingsHours": [
      {
        "weekDays": "Mo Di Mi Do Fr Sa So",
        "from": 0,
        "to": 24
      }
    ],
    "additional": "Unsere Öffnungszeiten",
    "image": "/dam/jcr:d205ff1d-b544-4c88-9455-59d21eee4d75/rtg_standort_aral_170x170.png",
    "location": {
      "lat": 48.8383703,
      "lng": 12.1227525
    }
  },
  {
    "zipCode": "85435",
    "city": "Erding",
    "street": "Sigwolfstraße 2",
    "name": "REWE To Go bei Aral",
    "phone": "08122-902786",
    "openingsHours": [
      {
        "weekDays": "Mo Di Mi Do Fr Sa So",
        "from": 0,
        "to": 24
      }
    ],
    "additional": "Unsere Öffnungszeiten",
    "image": "/dam/jcr:d205ff1d-b544-4c88-9455-59d21eee4d75/rtg_standort_aral_170x170.png",
    "location": {
      "lat": 48.315031,
      "lng": 11.8929936
    }
  },
  {
    "zipCode": "57439",
    "city": "Attendorn",
    "street": "Am Wassertor 17",
    "name": "REWE To Go bei Aral",
    "phone": "02722-4323",
    "openingsHours": [
      {
        "weekDays": "Mo Di Mi Do Fr Sa So",
        "from": 0,
        "to": 24
      }
    ],
    "additional": "Unsere Öffnungszeiten",
    "image": "/dam/jcr:d205ff1d-b544-4c88-9455-59d21eee4d75/rtg_standort_aral_170x170.png",
    "location": {
      "lat": 51.1227828,
      "lng": 7.9073306
    }
  },
  {
    "zipCode": "86167",
    "city": "Augsburg",
    "street": "Aindlinger Strasse 11",
    "name": "REWE To Go bei Aral",
    "phone": "0821-7472450",
    "openingsHours": [
      {
        "weekDays": "Mo Di Mi Do Fr Sa So",
        "from": 0,
        "to": 24
      }
    ],
    "additional": "Unsere Öffnungszeiten",
    "image": "/dam/jcr:d205ff1d-b544-4c88-9455-59d21eee4d75/rtg_standort_aral_170x170.png",
    "location": {
      "lat": 48.3928238,
      "lng": 10.9334735
    }
  },
  {
    "zipCode": "85368",
    "city": "Moosburg",
    "street": "Landshuter Straße 42",
    "name": "REWE To Go bei Aral",
    "phone": "08761-729846",
    "openingsHours": [
      {
        "weekDays": "Mo Di Mi Do Fr Sa So",
        "from": 0,
        "to": 24
      }
    ],
    "additional": "Unsere Öffnungszeiten",
    "image": "/dam/jcr:d205ff1d-b544-4c88-9455-59d21eee4d75/rtg_standort_aral_170x170.png",
    "location": {
      "lat": 48.463755,
      "lng": 11.9396939
    }
  },
  {
    "zipCode": "50259",
    "city": "Pulheim",
    "street": "Venloer Straße 39",
    "name": "REWE To Go bei Aral",
    "phone": "02238-54747",
    "openingsHours": [
      {
        "weekDays": "Mo Di Mi Do Fr Sa So",
        "from": 0,
        "to": 24
      }
    ],
    "additional": "Unsere Öffnungszeiten",
    "image": "/dam/jcr:d205ff1d-b544-4c88-9455-59d21eee4d75/rtg_standort_aral_170x170.png",
    "location": {
      "lat": 50.9953448,
      "lng": 6.809978099999999
    }
  },
  {
    "zipCode": "50737",
    "city": "Köln",
    "street": "Neusser Straße 856",
    "name": "REWE To Go bei Aral",
    "phone": "0221-9742284",
    "openingsHours": [
      {
        "weekDays": "Mo Di Mi Do Fr Sa So",
        "from": 0,
        "to": 24
      }
    ],
    "additional": "Unsere Öffnungszeiten",
    "image": "/dam/jcr:d205ff1d-b544-4c88-9455-59d21eee4d75/rtg_standort_aral_170x170.png",
    "location": {
      "lat": 50.9931983,
      "lng": 6.9404167
    }
  },
  {
    "zipCode": "50767",
    "city": "Köln",
    "street": "Donatusstraße 20",
    "name": "REWE To Go bei Aral",
    "phone": "0221-9591032",
    "openingsHours": [
      {
        "weekDays": "Mo Di Mi Do Fr Sa",
        "from": 6,
        "to": 24
      },
      {
        "weekDays": "So",
        "from": 8,
        "to": 24
      }
    ],
    "additional": "Unsere Öffnungszeiten",
    "image": "/dam/jcr:d205ff1d-b544-4c88-9455-59d21eee4d75/rtg_standort_aral_170x170.png",
    "location": {
      "lat": 51.0035171,
      "lng": 6.874823999999999
    }
  },
  {
    "zipCode": "13507",
    "city": "Berlin",
    "street": "Berliner Straße 67",
    "name": "REWE To Go bei Aral",
    "phone": "030-43551049",
    "openingsHours": [
      {
        "weekDays": "Mo Di Mi Do Fr Sa So",
        "from": 0,
        "to": 24
      }
    ],
    "additional": "Unsere Öffnungszeiten",
    "image": "/dam/jcr:d205ff1d-b544-4c88-9455-59d21eee4d75/rtg_standort_aral_170x170.png",
    "location": {
      "lat": 52.58135129999999,
      "lng": 13.291332
    }
  },
  {
    "zipCode": "73770",
    "city": "Denkendorf",
    "street": "Marie-Curie-Straße 2",
    "name": "REWE To Go bei Aral",
    "phone": "0711-3482625",
    "openingsHours": [
      {
        "weekDays": "Mo Di Mi Do Fr Sa So",
        "from": 0,
        "to": 24
      }
    ],
    "additional": "Unsere Öffnungszeiten",
    "image": "/dam/jcr:d205ff1d-b544-4c88-9455-59d21eee4d75/rtg_standort_aral_170x170.png",
    "location": {
      "lat": 48.7073755,
      "lng": 9.3056968
    }
  },
  {
    "zipCode": "71083",
    "city": "Herrenberg",
    "street": "Stuttgarter Straße 43",
    "name": "REWE To Go bei Aral",
    "phone": "07032-24366",
    "openingsHours": [
      {
        "weekDays": "Mo Di Mi Do Fr Sa So",
        "from": 0,
        "to": 24
      }
    ],
    "additional": "Unsere Öffnungszeiten",
    "image": "/dam/jcr:d205ff1d-b544-4c88-9455-59d21eee4d75/rtg_standort_aral_170x170.png",
    "location": {
      "lat": 48.6005648,
      "lng": 8.873013799999999
    }
  },
  {
    "zipCode": "22457",
    "city": "Hamburg",
    "street": "Pinneberger Straße 1-3",
    "name": "REWE To Go bei Aral",
    "phone": "040-5502787",
    "openingsHours": [
      {
        "weekDays": "Mo Di Mi Do Fr Sa So",
        "from": 0,
        "to": 24
      }
    ],
    "additional": "Unsere Öffnungszeiten",
    "image": "/dam/jcr:d205ff1d-b544-4c88-9455-59d21eee4d75/rtg_standort_aral_170x170.png",
    "location": {
      "lat": 53.6325903,
      "lng": 9.9103734
    }
  },
  {
    "zipCode": "85591",
    "city": "Vaterstetten",
    "street": "Wasserburger Landstraße 3",
    "name": "REWE To Go bei Aral",
    "phone": "08106-307446",
    "openingsHours": [
      {
        "weekDays": "Mo Di Mi Do Fr Sa So",
        "from": 0,
        "to": 24
      }
    ],
    "additional": "Unsere Öffnungszeiten",
    "image": "/dam/jcr:d205ff1d-b544-4c88-9455-59d21eee4d75/rtg_standort_aral_170x170.png",
    "location": {
      "lat": 48.09628,
      "lng": 11.77177
    }
  },
  {
    "zipCode": "21255",
    "city": "Tostedt",
    "street": "Kastanienallee 17-19",
    "name": "REWE To Go bei Aral",
    "phone": "04182-293396",
    "openingsHours": [
      {
        "weekDays": "Mo Di Mi Do Fr Sa So",
        "from": 0,
        "to": 24
      }
    ],
    "additional": "Unsere Öffnungszeiten",
    "image": "/dam/jcr:d205ff1d-b544-4c88-9455-59d21eee4d75/rtg_standort_aral_170x170.png",
    "location": {
      "lat": 53.2823,
      "lng": 9.713949999999999
    }
  },
  {
    "zipCode": "10365",
    "city": "Berlin",
    "street": "Frankfurter Allee 214",
    "name": "REWE To Go bei Aral",
    "phone": "030-5578472",
    "openingsHours": [
      {
        "weekDays": "Mo Di Mi Do Fr Sa So",
        "from": 0,
        "to": 24
      }
    ],
    "additional": "Unsere Öffnungszeiten",
    "image": "/dam/jcr:d205ff1d-b544-4c88-9455-59d21eee4d75/rtg_standort_aral_170x170.png",
    "location": {
      "lat": 52.51152500000001,
      "lng": 13.4937921
    }
  },
  {
    "zipCode": "67346",
    "city": "Speyer",
    "street": "Industriestraße 5 a",
    "name": "REWE To Go bei Aral",
    "phone": "06232-61143",
    "openingsHours": [
      {
        "weekDays": "Mo Di Mi Do Fr Sa So",
        "from": 0,
        "to": 24
      }
    ],
    "additional": "Unsere Öffnungszeiten",
    "image": "/dam/jcr:d205ff1d-b544-4c88-9455-59d21eee4d75/rtg_standort_aral_170x170.png",
    "location": {
      "lat": 49.3099073,
      "lng": 8.4446385
    }
  },
  {
    "zipCode": "53175",
    "city": "Bonn",
    "street": "Godesberger Allee 131",
    "name": "REWE To Go bei Aral",
    "phone": "0228-376016",
    "openingsHours": [
      {
        "weekDays": "Mo Di Mi Do Fr Sa So",
        "from": 0,
        "to": 24
      }
    ],
    "additional": "Unsere Öffnungszeiten",
    "image": "/dam/jcr:d205ff1d-b544-4c88-9455-59d21eee4d75/rtg_standort_aral_170x170.png",
    "location": {
      "lat": 50.7011623,
      "lng": 7.136457
    }
  },
  {
    "zipCode": "45891",
    "city": "Gelsenkirchen",
    "street": "Cranger Straße 243",
    "name": "REWE To Go bei Aral",
    "phone": "0209-75561",
    "openingsHours": [
      {
        "weekDays": "Mo Di Mi Do Fr Sa So",
        "from": 0,
        "to": 24
      }
    ],
    "additional": "Unsere Öffnungszeiten",
    "image": "/dam/jcr:d205ff1d-b544-4c88-9455-59d21eee4d75/rtg_standort_aral_170x170.png",
    "location": {
      "lat": 51.5621336,
      "lng": 7.0879778
    }
  },
  {
    "zipCode": "76275",
    "city": "Ettlingen",
    "street": "Karlsruher Straße 50a",
    "name": "REWE To Go bei Aral",
    "phone": "07243-12372",
    "openingsHours": [
      {
        "weekDays": "Mo Di Mi Do Fr Sa So",
        "from": 0,
        "to": 24
      }
    ],
    "additional": "Unsere Öffnungszeiten",
    "image": "/dam/jcr:d205ff1d-b544-4c88-9455-59d21eee4d75/rtg_standort_aral_170x170.png",
    "location": {
      "lat": 48.95762509999999,
      "lng": 8.4064563
    }
  },
  {
    "zipCode": "70190",
    "city": "Stuttgart",
    "street": "Cannstatter Straße 46",
    "name": "REWE To Go bei Aral",
    "phone": "0711-2625648",
    "openingsHours": [
      {
        "weekDays": "Mo Di Mi Do Fr Sa So",
        "from": 0,
        "to": 24
      }
    ],
    "additional": "Unsere Öffnungszeiten",
    "image": "/dam/jcr:d205ff1d-b544-4c88-9455-59d21eee4d75/rtg_standort_aral_170x170.png"
  },
  {
    "zipCode": "30459",
    "city": "Hannover",
    "street": "Göttinger Chaussee 80",
    "name": "REWE To Go bei Aral",
    "phone": "0511-421873",
    "openingsHours": [
      {
        "weekDays": "Mo Di Mi Do Fr Sa So",
        "from": 0,
        "to": 24
      }
    ],
    "additional": "Unsere Öffnungszeiten",
    "image": "/dam/jcr:d205ff1d-b544-4c88-9455-59d21eee4d75/rtg_standort_aral_170x170.png"
  },
  {
    "zipCode": "14163",
    "city": "Berlin",
    "street": "Potsdamer Chaussee 6",
    "name": "REWE To Go bei Aral",
    "phone": "030-8027017",
    "openingsHours": [
      {
        "weekDays": "Mo Di Mi Do Fr Sa So",
        "from": 0,
        "to": 24
      }
    ],
    "additional": "Unsere Öffnungszeiten",
    "image": "/dam/jcr:d205ff1d-b544-4c88-9455-59d21eee4d75/rtg_standort_aral_170x170.png"
  },
  {
    "zipCode": "74080",
    "city": "Heilbronn",
    "street": "Wilhelm-Leuschner-Straße 14",
    "name": "REWE To Go bei Aral",
    "phone": "07131-42113",
    "openingsHours": [
      {
        "weekDays": "Mo Di Mi Do Fr Sa So",
        "from": 0,
        "to": 24
      }
    ],
    "additional": "Unsere Öffnungszeiten",
    "image": "/dam/jcr:d205ff1d-b544-4c88-9455-59d21eee4d75/rtg_standort_aral_170x170.png"
  },
  {
    "zipCode": "50354",
    "city": "Hürth",
    "street": "Luxemburger Straße 58",
    "name": "REWE To Go bei Aral",
    "phone": "02233-65260",
    "openingsHours": [
      {
        "weekDays": "Mo Di Mi Do Fr Sa So",
        "from": 0,
        "to": 24
      }
    ],
    "additional": "Unsere Öffnungszeiten",
    "image": "/dam/jcr:d205ff1d-b544-4c88-9455-59d21eee4d75/rtg_standort_aral_170x170.png"
  },
  {
    "zipCode": "38350",
    "city": "Helmstedt",
    "street": "Poststraße 5",
    "name": "REWE To Go bei Aral",
    "phone": "05351-7442",
    "openingsHours": [
      {
        "weekDays": "Mo Di Mi Do Fr Sa So",
        "from": 0,
        "to": 24
      }
    ],
    "additional": "Unsere Öffnungszeiten",
    "image": "/dam/jcr:d205ff1d-b544-4c88-9455-59d21eee4d75/rtg_standort_aral_170x170.png"
  }
]